,adm1_code,adm1_name,fcs,rcsi,data_type,rainfall_3_months_anomaly_cubic_intp,ndvi_anomaly_cubic_intp,n_conflicts_Battles_rolsum_90days,n_fatalities_Battles_rolsum_90days,n_conflicts_Violence_against_civilians_rolsum_90days,n_fatalities_Violence_against_civilians_rolsum_90days,food_inflation_cubic_intp,headline_inflation_cubic_intp,currency_exchange_cubic_intp,population,Longitude,Latitude,MPI,region_cat,cv_ind,date,adm0_name,month,year,waterways_per_area,population_per_area,muslim_per_ramadan,last_fcs,last_rcsi,fcs_prediction,fcs_prediction_upper_bound,fcs_prediction_lower_bound,target_times_pop,last_times_pop,people_predicted,people_predicted_lower_bound,people_predicted_upper_bound
0,65698,Abia,0.1774571579514814,0.1247879212309664,SURVEY 90 days,0.7656049165144317,0.9889933477466488,5.0,3.0,6.0,42.0,23.5475946913299,20.95135355733143,431.87,3802539,7.523189981967188,5.453302118919583,0.101,s,2.0,2022-10-05,Nigeria,10,2022,2.263606106309577,9589224.656305324,0.0,0.1774571579514814,0.1247879212309664,0.18304187,0.18958246223628522,0.177333452552557,674787.7639396681,674787.7639396681,696023.8515667319,674317.3693357476,720894.7063695018
1426,65708,Rivers,0.1739251366679784,0.1521107362949767,SURVEY 90 days,0.6901585236407058,0.966369524216334,4.0,6.0,14.0,11.0,23.5475946913299,20.95135355733143,431.87,7216862,6.9181814546659615,4.845392315480488,0.241,s,3.0,2022-10-05,Nigeria,10,2022,37.974570247399846,8692966.737064147,0.0,,0.1521107362949767,0.17065418,0.18331222161650657,0.15894204936921597,1255193.70966394,,1231587.6499369144,1147062.8362948187,1322939.0063197447
1364,65707,Plateau,0.22139498837212,0.1355502824163276,SURVEY 90 days,1.0459843159239457,0.9707541730044013,8.0,33.0,23.0,41.0,23.5475946913299,20.95135355733143,431.87,4620441,9.512049503898895,9.232416150773494,0.365,ne,3.0,2022-10-05,Nigeria,10,2022,9.276632131225576,2118500.801670101,0.0,,0.1355502824163276,0.2574994,0.2810291886329651,0.24231785871088504,1022942.4814690665,,1189760.7704545856,1119615.3694199803,1298478.785356486
620,65704,Gombe,0.35280306864051,0.2191963240337801,SURVEY 90 days,1.0106330066730906,0.9208029059688124,0.0,0.0,2.0,3.0,23.5475946913299,20.95135355733143,431.87,3545037,11.19199513759299,10.383587852103902,0.38,fixed,0.0,2022-10-05,Nigeria,10,2022,8.17420965825676,2463975.872950984,0.0,0.35280306864051,0.2191963240337801,0.35356367,0.3589074857532978,0.34728973656892775,1250699.9320441475,1250699.9320441475,1253396.279044032,1231154.9658571018,1272340.3165724135
1302,2232,Ogun,0.1372846782250958,0.1082469355547356,SURVEY 90 days,0.7412706451443919,0.99550073404005,5.0,1.0,3.0,2.0,23.5475946913299,20.95135355733143,431.87,5408787,3.4732617764948586,6.995135100939411,0.289,fixed,0.0,2022-10-05,Nigeria,10,2022,5.663668766732277,3965325.0329528977,0.0,,0.1082469355547356,0.17219451,0.1840647019445896,0.16152818761765958,742543.5828830812,,931363.4309364259,873671.5613199581,995566.7670367709
682,2223,Jigawa,0.3960606988274381,0.2218790429594345,SURVEY 90 days,1.3517141691909704,1.0227215974310429,2.0,2.0,2.0,2.0,23.5475946913299,20.95135355733143,431.87,6366194,9.563558283105715,12.238420415697483,0.385,ne,5.0,2022-10-05,Nigeria,10,2022,2.480832167162807,3300473.564452695,0.0,0.3960606988274381,0.2218790429594345,0.3960728,0.40761332809925077,0.38577570468187333,2521399.2445110437,2521399.2445110437,2521476.314294696,2455922.976491514,2594945.5236654817
1240,2231,Niger,0.2292416951813499,0.1086369793072621,SURVEY 90 days,1.1543850321046338,0.9509756163980936,10.0,40.0,17.0,27.0,23.5475946913299,20.95135355733143,431.87,6109666,5.590434857522704,9.933226341153109,0.278,nc,3.0,2022-10-05,Nigeria,10,2022,9.388851620050351,1030131.6717775204,0.0,,0.1086369793072621,0.2676304,0.2931815512478351,0.2524366118013859,1400590.1908318573,,1635132.3448978662,1542303.384278126,1791241.355486156
558,65703,Enugu,0.1521786102768758,0.1158004469800164,SURVEY 90 days,0.942336986955202,0.9851743949181966,7.0,7.0,22.0,6.0,23.5475946913299,20.95135355733143,431.87,4361568,7.440611162631195,6.536244896216677,0.234,s,4.0,2022-10-05,Nigeria,10,2022,0.8010134347845391,6986076.713337876,0.0,0.1521786102768758,0.1158004469800164,0.15438206,0.16198742911219596,0.14739888533949852,663737.3568680926,663737.3568680926,673347.8742098808,642890.2615324259,706519.1872180223
744,2224,Kaduna,0.2653277138759679,0.1538521925568076,SURVEY 90 days,0.9992246306208348,0.9899997350569274,42.0,139.0,33.0,30.0,23.5475946913299,20.95135355733143,431.87,9391404,7.705978547518679,10.392367010531627,0.298,nw,2.0,2022-10-05,Nigeria,10,2022,6.893640683229361,2576065.484793514,0.0,0.2653277138759679,0.1538521925568076,0.2706023,0.28003539964556695,0.26431750059127807,2491799.7534056203,2491799.7534056203,2541335.389853239,2482312.432322931,2629925.572372976
1116,2230,Lagos,0.126308799493743,0.1121676053632074,SURVEY 90 days,0.6918995060079817,0.9577062286455272,4.0,4.0,10.0,7.0,23.5475946913299,20.95135355733143,431.87,12631475,3.586974900291951,6.522424330455863,0.101,fixed,0.0,2022-10-05,Nigeria,10,2022,5.586413295128642,42081677.085942894,0.0,,0.1121676053632074,0.14856151,0.15884322971105574,0.14101221226155758,1595466.4430852272,,1876550.9674869478,1781192.233876558,2006424.2850144578
806,2225,Kano,0.3085407239804184,0.1967527264918298,SURVEY 90 days,1.1756861499184503,1.016900812054601,1.0,0.0,2.0,2.0,23.5475946913299,20.95135355733143,431.87,14936166,8.529557183153377,11.745201935123053,0.27,ne,4.0,2022-10-05,Nigeria,10,2022,7.981062865682501,8861001.919034759,0.0,0.3085407239804184,0.1967527264918298,0.31205833,0.32019046843051907,0.30622576028108595,4608415.471131709,4608415.471131709,4660955.012322664,4573838.789034506,4782417.988095992
1054,2229,Kwara,0.1763354608965502,0.1330322974594477,SURVEY 90 days,1.185591322290126,0.9771993412737232,2.0,4.0,12.0,6.0,23.5475946913299,20.95135355733143,431.87,3201976,4.385168582923295,8.9659337636487,0.185,nc,4.0,2022-10-05,Nigeria,10,2022,5.064545752306378,1157517.3725225476,0.0,,0.1330322974594477,0.18950346,0.20309550389647482,0.1802072510123253,564621.9137396922,,606785.5344312191,577019.2927674412,650306.9291844189
868,2226,Katsina,0.2792161764909565,0.2293647561626378,SURVEY 90 days,1.1450353319846192,1.0875794939093717,24.0,49.0,37.0,28.0,23.5475946913299,20.95135355733143,431.87,7831200,7.628834204597841,12.37830070781455,0.304,nw,3.0,2022-10-05,Nigeria,10,2022,3.738369025539354,3931429.115546426,0.0,0.2792161764909565,0.2293647561626378,0.28734046,0.3019126124680042,0.27856339812278746,2186597.7213359782,2186597.7213359782,2250220.627641678,2181485.6833791733,2364338.0507594347
992,2228,Kogi,0.3007955244403319,0.1751187788273328,SURVEY 90 days,0.9748495209349493,0.9685330161033672,5.0,19.0,11.0,16.0,23.5475946913299,20.95135355733143,431.87,4510378,6.686754336473293,7.736607886003764,0.25,nc,5.0,2022-10-05,Nigeria,10,2022,5.410010761176255,1904011.0166260053,0.0,,0.1751187788273328,0.27373302,0.28753205910325047,0.2486082438379526,1356701.5159341353,,1234639.390509367,1121317.153625337,1296878.2736740008
930,2227,Kebbi,0.3736801745526864,0.2039642586533264,SURVEY 90 days,1.2235928409233112,0.985506474285308,2.0,2.0,6.0,10.0,23.5475946913299,20.95135355733143,431.87,4915325,4.51668666929484,11.743956421859846,0.385,nw,1.0,2022-10-05,Nigeria,10,2022,5.980954530481244,1619425.8096421403,0.0,,0.2039642586533264,0.36356068,0.3719564728438854,0.346418297290802,1836759.503983183,,1787018.8825845718,1702758.5171309114,1828286.9498813709
1178,65705,Nassarawa,0.2399952350852433,0.1380443996223261,SURVEY 90 days,1.0732755373138343,0.9608956571306412,0.0,0.0,5.0,0.0,23.5475946913299,20.95135355733143,431.87,2536680,8.19796255875058,8.510447350140884,0.243,nc,2.0,2022-10-05,Nigeria,10,2022,6.346797030183005,1154123.7815256508,0.0,,0.1380443996223261,0.23950988,0.25234459340572357,0.2238481130450964,608791.112936035,,607559.9237751961,567831.0313992351,640117.4832004309
930,2227,Kebbi,0.3736801745526864,0.2039642586533264,SURVEY 90 days,1.2235928409233112,0.985506474285308,2.0,2.0,6.0,10.0,23.5475946913299,20.95135355733143,431.87,4915325,4.51668666929484,11.743956421859846,0.385,nw,1.0,2022-10-05,Nigeria,10,2022,5.980954530481244,1619425.8096421403,0.0,0.3736801745526864,0.2039642586533264,0.3725513,0.3804143093526363,0.36701557114720346,1836759.503983183,1836759.503983183,1831210.6802396476,1804000.8122491278,1869859.9651187472
2232,65706,Ondo,0.159828037,0.2885801196,PREDICTION,0.8381348784664671,0.9925409625952052,2.0,1.0,6.0,2.0,23.5475946913299,20.95135355733143,431.87,4701603,5.150609211703119,6.917995342607632,0.095,,,2022-10-05,Nigeria,10,2022,4.575001375560877,3811452.282575353,0.0,,0.2885801196,0.18082163,0.19595079012215139,0.17025507241487503,751447.978243311,,850151.5057474673,800471.7592309937,921282.8226906774
496,2219,Edo,0.1309559288802667,0.0954440952033172,SURVEY 90 days,0.88349287065588,0.9827020014465716,13.0,19.0,5.0,0.0,23.5475946913299,20.95135355733143,431.87,4275642,5.930214659778057,6.633537264421524,0.126,fixed,0.0,2022-10-05,Nigeria,10,2022,4.106835383110302,2679294.9743232727,0.0,0.1309559288802667,0.0954440952033172,0.12847772,0.13742357939481734,0.11521375551819801,559920.6696694812,559920.6696694812,549324.7459850907,492612.7720713392,587574.0278508156
2046,65700,Bayelsa,0.1667830646,0.3126555681,PREDICTION,0.6278754823922108,0.974509618030458,3.0,2.0,4.0,4.0,23.5475946913299,20.95135355733143,431.87,2394195,6.080417668394572,4.766315392876971,0.401,,,2022-10-05,Nigeria,10,2022,49.56312202804818,3082252.733161604,0.0,,0.3126555681,0.18292037,0.19389892518520355,0.1675375744700432,399311.179349997,,437947.02693387866,401117.62310830504,464231.8371837884
1984,2235,Oyo,0.1788243055,0.3086569309,PREDICTION,1.1512566910072997,1.0035650737863293,3.0,5.0,10.0,2.0,23.5475946913299,20.95135355733143,431.87,7926302,3.612911625311882,8.158826810946747,0.19,,,2022-10-05,Nigeria,10,2022,3.8968937141083706,3499598.273847054,0.0,,0.3086569309,0.19199143,0.21069672890007496,0.17859852649271488,1417415.450333261,,1521782.083343774,1415625.857736259,1670045.903674122
186,2212,Akwa Ibom,0.1582982951807885,0.1303398895864095,SURVEY 90 days,0.7211636305551875,0.9808494544098796,1.0,2.0,6.0,1.0,23.5475946913299,20.95135355733143,431.87,5449818,7.84736624649367,4.906643134561908,0.293,s,1.0,2022-10-05,Nigeria,10,2022,4.773607092678418,9918206.576131117,0.0,0.1582982951807885,0.1303398895864095,0.16368324,0.1720679011195898,0.15488864816725254,862696.8984455745,862696.8984455745,892043.8439179659,844114.9427775599,937738.7447437607
1922,2234,Osun,0.154505372,0.2720808387,PREDICTION,0.9214183830285868,0.9901726742820788,4.0,2.0,15.0,12.0,23.5475946913299,20.95135355733143,431.87,4762863,4.517762270027345,7.56291851875539,0.15,,,2022-10-05,Nigeria,10,2022,5.010304141813051,6760155.198419659,0.0,,0.2720808387,0.20563716,0.2225394796580076,0.19343079701066018,735887.919600036,,979421.6063259244,921284.386142584,1059925.053702377
248,65699,Bauchi,0.3485781325246689,0.2166242671233762,SURVEY 90 days,1.1425032722827335,0.9759818949811756,1.0,3.0,9.0,3.0,23.5475946913299,20.95135355733143,431.87,7222452,9.990588234110133,10.796647164882812,0.298,ne,2.0,2022-10-05,Nigeria,10,2022,6.7705694498478675,1800653.3098478871,0.0,0.3485781325246689,0.2166242671233762,0.35128605,0.35809061527252195,0.34610475897789,2517588.8304090598,2517588.8304090598,2537146.6608109474,2499725.00868938,2586292.2804562566
1860,2222,Imo,0.1450535059,0.2663261294,PREDICTION,0.8095310242993913,0.9787602773357548,9.0,18.0,20.0,23.0,23.5475946913299,20.95135355733143,431.87,5464002,7.062307590787432,5.573020020443396,0.142,,,2022-10-05,Nigeria,10,2022,9.382433903350265,13194968.10841433,0.0,,0.2663261294,0.15369575,0.1757209863513708,0.13721299022436143,792572.6463446118,,839793.8703998029,749732.0530118913,960139.8208658627
1488,65709,Sokoto,0.3831650340331691,0.2243708780509444,SURVEY 90 days,1.1398116880002702,1.1138679857877267,0.0,0.0,11.0,42.0,23.5475946913299,20.95135355733143,431.87,5417315,5.318810473495564,13.0379933679968,0.409,nw,5.0,2022-10-05,Nigeria,10,2022,3.4150905837825727,2021728.1523809377,0.0,,0.2243708780509444,0.38301328,0.39126680716872214,0.3704848408699036,2075725.6863433975,,2074903.577440828,2007033.0857171416,2119615.543477226
1798,2218,Delta,0.158039242,0.2901741862,PREDICTION,0.7015884756890459,0.9489580036463204,10.0,12.0,11.0,8.0,23.5475946913299,20.95135355733143,431.87,5746119,5.936929598192746,5.704898234854848,0.173,,,2022-10-05,Nigeria,10,2022,20.867013050104013,4121794.1083982666,0.0,,0.2901741862,0.1248624,0.14758346527814864,0.11406412236392498,908112.291201798,,717474.2244110405,655426.0207336742,848032.1539206102
1736,2213,Anambra,0.1479658186,0.2520663142,PREDICTION,0.8411333173773189,0.911972564370656,10.0,23.0,11.0,4.0,23.5475946913299,20.95135355733143,431.87,5494926,6.932186088031399,6.222775876473439,0.109,,,2022-10-05,Nigeria,10,2022,6.98268221738697,13994079.803680744,0.0,,0.2520663142,0.13546549,0.1520588893443346,0.12265598643571138,813061.2237364235,,744372.831222564,673985.5689212378,835552.3445893071
372,2216,Borno,0.3473003640643912,0.5666972351433666,SURVEY 30 days,1.2111980062456278,1.1377918499012225,54.0,384.0,19.0,12.0,23.5475946913299,20.95135355733143,431.87,5884116,13.153346984526962,11.888980100206933,0.315,,,2022-10-05,Nigeria,10,2022,7.110502110408558,982676.1296852822,0.0,0.3473003640643912,0.5666972351433666,0.35434708,0.36551695987582206,0.34306672737002375,2043555.6289971091,2043555.6289971091,2085019.3229359388,2018644.4195855947,2150744.1918766825
1674,65710,Zamfara,0.3585218991541131,0.2330362881203905,SURVEY 90 days,1.0204816066156657,1.1009911118322722,8.0,63.0,36.0,100.0,23.5475946913299,20.95135355733143,431.87,3483746,6.246534745910911,12.10150481045647,0.328,nw,4.0,2022-10-05,Nigeria,10,2022,4.699968878465895,1251860.2019380694,0.0,,0.2330362881203905,0.3788773,0.39730990082025525,0.35989607572555543,1248999.232090545,,1319912.319979012,1253786.5142246007,1384126.777742961
434,2217,Cross River,0.1501905289454733,0.1122547141943184,SURVEY 90 days,0.7998603824480812,0.9881021779160252,5.0,12.0,7.0,0.0,23.5475946913299,20.95135355733143,431.87,3666248,8.598974758863495,5.873919917501246,0.299,s,5.0,2022-10-05,Nigeria,10,2022,6.604995961527632,2142478.3299702806,0.0,0.1501905289454733,0.1122547141943184,0.1511809,0.15798959992825984,0.14558328427374362,550635.7263652836,550635.7263652836,554266.6472694874,533744.4248020439,579229.0547577827
1612,2240,Yobe,0.43951903065026,0.5535041069736237,SURVEY 30 days,1.3857389450570263,1.097740318501199,5.0,8.0,2.0,1.0,23.5475946913299,20.95135355733143,431.87,4340967,11.43706583990847,12.29868022093661,0.37,,,2022-10-05,Nigeria,10,2022,2.999205945765202,1164832.327535513,0.0,,0.5535041069736237,0.38602108,0.3956985235214233,0.36858207583427427,1907937.607924767,,1675704.7593088746,1600002.6279880821,1717714.2325552225
1550,2239,Taraba,0.2485401718646258,0.1950554339508683,SURVEY 90 days,0.9113597565289222,0.9611214566305945,4.0,26.0,12.0,44.0,23.5475946913299,20.95135355733143,431.87,3402075,10.786479442315445,8.023131156568944,0.34,ne,1.0,2022-10-05,Nigeria,10,2022,6.57087117789129,708400.531222387,0.0,,0.1950554339508683,0.27700496,0.2958651639521122,0.2631137505173683,845552.3051963468,,942391.6397631168,895132.7127913757,1006555.4776523821
310,2215,Benue,0.2495866332302367,0.1300096592950903,SURVEY 90 days,0.8976554196927782,0.9972712068799496,5.0,11.0,12.0,40.0,23.5475946913299,20.95135355733143,431.87,6282546,8.751907951010807,7.341086057629309,0.312,nc,1.0,2022-10-05,Nigeria,10,2022,2.1219217639571797,2436641.1429180508,0.0,0.2495866332302367,0.1300096592950903,0.2540358,0.26203290075063707,0.24767615646123886,1568039.5042540906,1568039.5042540906,1595991.6035158038,1556036.8460709304,1646233.7524793118
124,2211,Adamawa,0.4958795391941462,0.582622967106057,SURVEY 30 days,0.9201013352824844,0.9366171279359012,2.0,4.0,11.0,7.0,23.5475946913299,20.95135355733143,431.87,4946724,12.400240775699976,9.323227331978972,0.283,,,2022-10-05,Nigeria,10,2022,8.912189238124059,1589050.3233018126,0.0,0.4958795391941462,0.582622967106057,0.49635887,0.5064302206039428,0.48100955933332445,2452979.2176406235,2452979.2176406235,2455350.342063904,2379421.53138358,2505170.5265868185
868,2226,Katsina,0.2792161764909565,0.2293647561626378,SURVEY 90 days,1.1450353319846192,1.0875794939093717,24.0,49.0,37.0,28.0,23.5475946913299,20.95135355733143,431.87,7831200,7.628834204597841,12.37830070781455,0.304,nw,3.0,2022-10-05,Nigeria,10,2022,3.738369025539354,3931429.115546426,0.0,,0.2293647561626378,0.33112568,0.3579567164182663,0.30293506756424904,2186597.7213359782,,2593111.3988399506,2372345.101109147,2803230.637614727
806,2225,Kano,0.3085407239804184,0.1967527264918298,SURVEY 90 days,1.1756861499184503,1.016900812054601,1.0,0.0,2.0,2.0,23.5475946913299,20.95135355733143,431.87,14936166,8.529557183153377,11.745201935123053,0.27,ne,4.0,2022-10-05,Nigeria,10,2022,7.981062865682501,8861001.919034759,0.0,,0.1967527264918298,0.33558902,0.36103400513529776,0.3203945681452751,4608415.471131709,,5012413.332069933,4785466.455316141,5392463.83234566
124,2211,Adamawa,0.4958795391941462,0.582622967106057,SURVEY 30 days,0.9201013352824844,0.9366171279359012,2.0,4.0,11.0,7.0,23.5475946913299,20.95135355733143,431.87,4946724,12.400240775699976,9.323227331978972,0.283,,,2022-10-05,Nigeria,10,2022,8.912189238124059,1589050.3233018126,0.0,,0.582622967106057,0.24494925,0.2720658086240292,0.22509303987026213,2452979.2176406235,,1211696.3407484293,1113473.1425591826,1345834.465099892
1550,2239,Taraba,0.2485401718646258,0.1950554339508683,SURVEY 90 days,0.9113597565289222,0.9611214566305945,4.0,26.0,12.0,44.0,23.5475946913299,20.95135355733143,431.87,3402075,10.786479442315445,8.023131156568944,0.34,ne,1.0,2022-10-05,Nigeria,10,2022,6.57087117789129,708400.531222387,0.0,0.2485401718646258,0.1950554339508683,0.25222063,0.2623410403728485,0.24586253874003888,845552.3051963468,845552.3051963468,858073.5020041466,836442.7964840177,892503.8949264586
62,2221,Abuja,0.0863476233454494,0.1011336812886823,SURVEY 90 days,1.145000785108986,0.9626609510407372,4.0,36.0,21.0,6.0,23.5475946913299,20.95135355733143,431.87,4346654,7.195557200236763,8.897617247031896,0.186,fixed,0.0,2022-10-05,Nigeria,10,2022,8.093857361595054,7158264.008480198,0.0,,0.1011336812886823,0.12243207,0.16255311071872705,0.11114402003586292,375323.242404991,,532169.8380583227,483104.5992649637,706562.1289179978
0,65698,Abia,0.1774571579514814,0.1247879212309664,SURVEY 90 days,0.7656049165144317,0.9889933477466488,5.0,3.0,6.0,42.0,23.5475946913299,20.95135355733143,431.87,3802539,7.523189981967188,5.453302118919583,0.101,s,2.0,2022-10-05,Nigeria,10,2022,2.263606106309577,9589224.656305324,0.0,,0.1247879212309664,0.19912517,0.21248628348112106,0.1878769274801016,674787.7639396681,,757181.2274976969,714409.343943258,807987.3799020186
1612,2240,Yobe,0.43951903065026,0.5535041069736237,SURVEY 30 days,1.3857389450570263,1.097740318501199,5.0,8.0,2.0,1.0,23.5475946913299,20.95135355733143,431.87,4340967,11.43706583990847,12.29868022093661,0.37,,,2022-10-05,Nigeria,10,2022,2.999205945765202,1164832.327535513,0.0,0.43951903065026,0.5535041069736237,0.44762546,0.4586284011602402,0.43537691086530683,1907937.607924767,1907937.607924767,1943127.3425819278,1889956.8026282385,1990890.7546993643
2232,65706,Ondo,0.159828037,0.2885801196,PREDICTION,0.8381348784664671,0.9925409625952052,2.0,1.0,6.0,2.0,23.5475946913299,20.95135355733143,431.87,4701603,5.150609211703119,6.917995342607632,0.095,,,2022-10-05,Nigeria,10,2022,4.575001375560877,3811452.282575353,0.0,0.159828037,0.2885801196,0.1657533,0.1729339066892862,0.15535240806639194,751447.978243311,751447.978243311,779306.2358520627,730405.3478221726,813066.5744920681
1488,65709,Sokoto,0.3831650340331691,0.2243708780509444,SURVEY 90 days,1.1398116880002702,1.1138679857877267,0.0,0.0,11.0,42.0,23.5475946913299,20.95135355733143,431.87,5417315,5.318810473495564,13.0379933679968,0.409,nw,5.0,2022-10-05,Nigeria,10,2022,3.4150905837825727,2021728.1523809377,0.0,0.3831650340331691,0.2243708780509444,0.3855117,0.3955679595470428,0.380523557215929,2075725.6863433975,2075725.6863433975,2088438.295250833,2061415.9743592103,2142916.2407735884
1674,65710,Zamfara,0.3585218991541131,0.2330362881203905,SURVEY 90 days,1.0204816066156657,1.1009911118322722,8.0,63.0,36.0,100.0,23.5475946913299,20.95135355733143,431.87,3483746,6.246534745910911,12.10150481045647,0.328,nw,4.0,2022-10-05,Nigeria,10,2022,4.699968878465895,1251860.2019380694,0.0,0.3585218991541131,0.2330362881203905,0.364397,0.3779719553887844,0.35748762264847755,1248999.232090545,1248999.232090545,1269466.5540446043,1245396.075451143,1316758.287697856
1736,2213,Anambra,0.1479658186,0.2520663142,PREDICTION,0.8411333173773189,0.911972564370656,10.0,23.0,11.0,4.0,23.5475946913299,20.95135355733143,431.87,5494926,6.932186088031399,6.222775876473439,0.109,,,2022-10-05,Nigeria,10,2022,6.98268221738697,13994079.803680744,0.0,0.1479658186,0.2520663142,0.14695439,0.1551591273397207,0.1320092100650072,813061.2237364235,813061.2237364235,807503.4842832685,725380.8406256698,852587.9229563421
2108,65701,Ebonyi,0.1575534046,0.2700552046,PREDICTION,0.8698784731027102,0.9973002051551176,4.0,4.0,4.0,5.0,23.5475946913299,20.95135355733143,431.87,2900754,8.016266262545862,6.262027249277776,0.32,,,2022-10-05,Nigeria,10,2022,6.052530347082098,5599375.086127473,0.0,0.1575534046,0.2700552046,0.1626344,0.1712220124900341,0.15105673260986804,457023.6686070684,457023.6686070684,471762.39362865686,438178.42134500516,496672.9376185164
2046,65700,Bayelsa,0.1667830646,0.3126555681,PREDICTION,0.6278754823922108,0.974509618030458,3.0,2.0,4.0,4.0,23.5475946913299,20.95135355733143,431.87,2394195,6.080417668394572,4.766315392876971,0.401,,,2022-10-05,Nigeria,10,2022,49.56312202804818,3082252.733161604,0.0,0.1667830646,0.3126555681,0.16915122,0.1746389601379633,0.16352272108197213,399311.179349997,399311.179349997,404980.9973756969,391505.28120085225,418119.72516751103
1798,2218,Delta,0.158039242,0.2901741862,PREDICTION,0.7015884756890459,0.9489580036463204,10.0,12.0,11.0,8.0,23.5475946913299,20.95135355733143,431.87,5746119,5.936929598192746,5.704898234854848,0.173,,,2022-10-05,Nigeria,10,2022,20.867013050104013,4121794.1083982666,0.0,0.158039242,0.2901741862,0.1554577,0.16686219908297062,0.1429882224649191,908112.291201798,908112.291201798,893278.4738869965,821627.3418818985,958810.05253244
1984,2235,Oyo,0.1788243055,0.3086569309,PREDICTION,1.1512566910072997,1.0035650737863293,3.0,5.0,10.0,2.0,23.5475946913299,20.95135355733143,431.87,7926302,3.612911625311882,8.158826810946747,0.19,,,2022-10-05,Nigeria,10,2022,3.8968937141083706,3499598.273847054,0.0,0.1788243055,0.3086569309,0.18870178,0.19624696783721446,0.18193143159151076,1417415.450333261,1417415.450333261,1495707.285519302,1442043.4700866549,1555512.7336620486
1860,2222,Imo,0.1450535059,0.2663261294,PREDICTION,0.8095310242993913,0.9787602773357548,9.0,18.0,20.0,23.0,23.5475946913299,20.95135355733143,431.87,5464002,7.062307590787432,5.573020020443396,0.142,,,2022-10-05,Nigeria,10,2022,9.382433903350265,13194968.10841433,0.0,0.1450535059,0.2663261294,0.14483166,0.15342443622648716,0.1341566476970911,792572.6463446118,792572.6463446118,791360.4657497406,733032.1913302011,838311.4263903983
2170,65702,Ekiti,0.1566643864,0.2662037313,PREDICTION,0.9779177163471964,0.99545287920853,0.0,0.0,5.0,2.0,23.5475946913299,20.95135355733143,431.87,3263741,5.309515526441268,7.720080403716114,0.125,,,2022-10-05,Nigeria,10,2022,0.0,6920075.579838639,0.0,0.1566643864,0.2662037313,0.16057396,0.17065875604748723,0.15029428265988826,511311.9811335224,511311.9811335224,524071.8146648407,490521.6123826664,556985.979121182
992,2228,Kogi,0.3007955244403319,0.1751187788273328,SURVEY 90 days,0.9748495209349493,0.9685330161033672,5.0,19.0,11.0,16.0,23.5475946913299,20.95135355733143,431.87,4510378,6.686754336473293,7.736607886003764,0.25,nc,5.0,2022-10-05,Nigeria,10,2022,5.410010761176255,1904011.0166260053,0.0,0.3007955244403319,0.1751187788273328,0.3012302,0.3075438432395458,0.2940299645066261,1356701.5159341353,1356701.5159341353,1358662.0317645073,1326186.2832514672,1387138.984583096
186,2212,Akwa Ibom,0.1582982951807885,0.1303398895864095,SURVEY 90 days,0.7211636305551875,0.9808494544098796,1.0,2.0,6.0,1.0,23.5475946913299,20.95135355733143,431.87,5449818,7.84736624649367,4.906643134561908,0.293,s,1.0,2022-10-05,Nigeria,10,2022,4.773607092678418,9918206.576131117,0.0,,0.1303398895864095,0.18747732,0.20100868940353395,0.17453522197902202,862696.8984455745,,1021717.2754856944,951185.1943752698,1095460.7736677886
1426,65708,Rivers,0.1739251366679784,0.1521107362949767,SURVEY 90 days,0.6901585236407058,0.966369524216334,4.0,6.0,14.0,11.0,23.5475946913299,20.95135355733143,431.87,7216862,6.9181814546659615,4.845392315480488,0.241,s,3.0,2022-10-05,Nigeria,10,2022,37.974570247399846,8692966.737064147,0.0,0.1739251366679784,0.1521107362949767,0.17152944,0.17661625221371652,0.16730545721948148,1255193.70966394,1255193.70966394,1237904.3123700023,1207420.3965999016,1274615.1191835867
1054,2229,Kwara,0.1763354608965502,0.1330322974594477,SURVEY 90 days,1.185591322290126,0.9771993412737232,2.0,4.0,12.0,6.0,23.5475946913299,20.95135355733143,431.87,3201976,4.385168582923295,8.9659337636487,0.185,nc,4.0,2022-10-05,Nigeria,10,2022,5.064545752306378,1157517.3725225476,0.0,0.1763354608965502,0.1330322974594477,0.17745626,0.18280338868498802,0.17252830415964127,564621.9137396922,564621.9137396922,568210.6846971512,552431.4892398715,585332.0632880032
744,2224,Kaduna,0.2653277138759679,0.1538521925568076,SURVEY 90 days,0.9992246306208348,0.9899997350569274,42.0,139.0,33.0,30.0,23.5475946913299,20.95135355733143,431.87,9391404,7.705978547518679,10.392367010531627,0.298,nw,2.0,2022-10-05,Nigeria,10,2022,6.893640683229361,2576065.484793514,0.0,,0.1538521925568076,0.27889925,0.3034003466367722,0.2671368084847927,2491799.7534056203,,2619255.554724455,2508789.691751316,2849355.2290059687
682,2223,Jigawa,0.3960606988274381,0.2218790429594345,SURVEY 90 days,1.3517141691909704,1.0227215974310429,2.0,2.0,2.0,2.0,23.5475946913299,20.95135355733143,431.87,6366194,9.563558283105715,12.238420415697483,0.385,ne,5.0,2022-10-05,Nigeria,10,2022,2.480832167162807,3300473.564452695,0.0,,0.2218790429594345,0.38460436,0.39376418218016623,0.37038200348615646,2521399.2445110437,,2448465.998503983,2357923.6883015484,2506779.174010281
1116,2230,Lagos,0.126308799493743,0.1121676053632074,SURVEY 90 days,0.6918995060079817,0.9577062286455272,4.0,4.0,10.0,7.0,23.5475946913299,20.95135355733143,431.87,12631475,3.586974900291951,6.522424330455863,0.101,fixed,0.0,2022-10-05,Nigeria,10,2022,5.586413295128642,42081677.085942894,0.0,0.126308799493743,0.1121676053632074,0.123714305,0.1308651901781559,0.10923729483038187,1595466.4430852272,1595466.4430852272,1562694.156566076,1379828.1587175978,1653020.3781056218
620,65704,Gombe,0.35280306864051,0.2191963240337801,SURVEY 90 days,1.0106330066730906,0.9208029059688124,0.0,0.0,2.0,3.0,23.5475946913299,20.95135355733143,431.87,3545037,11.19199513759299,10.383587852103902,0.38,fixed,0.0,2022-10-05,Nigeria,10,2022,8.17420965825676,2463975.872950984,0.0,,0.2191963240337801,0.34636799,0.3539342567324638,0.3357135012745857,1250699.9320441475,,1227887.3224764168,1190116.7834179534,1254710.0356840834
1178,65705,Nassarawa,0.2399952350852433,0.1380443996223261,SURVEY 90 days,1.0732755373138343,0.9608956571306412,0.0,0.0,5.0,0.0,23.5475946913299,20.95135355733143,431.87,2536680,8.19796255875058,8.510447350140884,0.243,nc,2.0,2022-10-05,Nigeria,10,2022,6.346797030183005,1154123.7815256508,0.0,0.2399952350852433,0.1380443996223261,0.24116686,0.24600619301199914,0.2374110072851181,608791.112936035,608791.112936035,611763.1500828266,602235.7539600134,624038.989689678
248,65699,Bauchi,0.3485781325246689,0.2166242671233762,SURVEY 90 days,1.1425032722827335,0.9759818949811756,1.0,3.0,9.0,3.0,23.5475946913299,20.95135355733143,431.87,7222452,9.990588234110133,10.796647164882812,0.298,ne,2.0,2022-10-05,Nigeria,10,2022,6.7705694498478675,1800653.3098478871,0.0,,0.2166242671233762,0.35105923,0.3627583138644695,0.332851479947567,2517588.8304090598,,2535508.4247003794,2404003.837050265,2620004.5094870655
558,65703,Enugu,0.1521786102768758,0.1158004469800164,SURVEY 90 days,0.942336986955202,0.9851743949181966,7.0,7.0,22.0,6.0,23.5475946913299,20.95135355733143,431.87,4361568,7.440611162631195,6.536244896216677,0.234,s,4.0,2022-10-05,Nigeria,10,2022,0.8010134347845391,6986076.713337876,0.0,,0.1158004469800164,0.17067996,0.18135612197220324,0.1605936512351036,663737.3568680926,,744432.2372732162,700440.1302301884,790997.0581980585
496,2219,Edo,0.1309559288802667,0.0954440952033172,SURVEY 90 days,0.88349287065588,0.9827020014465716,13.0,19.0,5.0,0.0,23.5475946913299,20.95135355733143,431.87,4275642,5.930214659778057,6.633537264421524,0.126,fixed,0.0,2022-10-05,Nigeria,10,2022,4.106835383110302,2679294.9743232727,0.0,,0.0954440952033172,0.14916907,0.17083794288337228,0.1410428114235401,559920.6696694812,,637793.5515197217,603048.5683205678,730441.8837857477
434,2217,Cross River,0.1501905289454733,0.1122547141943184,SURVEY 90 days,0.7998603824480812,0.9881021779160252,5.0,12.0,7.0,0.0,23.5475946913299,20.95135355733143,431.87,3666248,8.598974758863495,5.873919917501246,0.299,s,5.0,2022-10-05,Nigeria,10,2022,6.604995961527632,2142478.3299702806,0.0,,0.1122547141943184,0.16167721,0.17433334738016126,0.15306177996098996,550635.7263652836,,592748.7533919811,561162.4446584196,639149.2861658215
1302,2232,Ogun,0.1372846782250958,0.1082469355547356,SURVEY 90 days,0.7412706451443919,0.99550073404005,5.0,1.0,3.0,2.0,23.5475946913299,20.95135355733143,431.87,5408787,3.4732617764948586,6.995135100939411,0.289,fixed,0.0,2022-10-05,Nigeria,10,2022,5.663668766732277,3965325.0329528977,0.0,0.1372846782250958,0.1082469355547356,0.14513063,0.1555980786681175,0.13757829703390598,742543.5828830812,742543.5828830812,784980.6881461143,744131.7044791292,841596.8651250913
372,2216,Borno,0.3473003640643912,0.5666972351433666,SURVEY 30 days,1.2111980062456278,1.1377918499012225,54.0,384.0,19.0,12.0,23.5475946913299,20.95135355733143,431.87,5884116,13.153346984526962,11.888980100206933,0.315,,,2022-10-05,Nigeria,10,2022,7.110502110408558,982676.1296852822,0.0,,0.5666972351433666,0.37567234,0.4034416057169437,0.3485169917345047,2043555.6289971091,,2210499.6288642883,2050714.4073368667,2373897.20726476
1364,65707,Plateau,0.22139498837212,0.1355502824163276,SURVEY 90 days,1.0459843159239457,0.9707541730044013,8.0,33.0,23.0,41.0,23.5475946913299,20.95135355733143,431.87,4620441,9.512049503898895,9.232416150773494,0.365,ne,3.0,2022-10-05,Nigeria,10,2022,9.276632131225576,2118500.801670101,0.0,0.22139498837212,0.1355502824163276,0.22477813,0.23091735430061816,0.21990025080740452,1022942.4814690665,1022942.4814690665,1038574.0907610208,1016036.1347408149,1066940.0114221026
310,2215,Benue,0.2495866332302367,0.1300096592950903,SURVEY 90 days,0.8976554196927782,0.9972712068799496,5.0,11.0,12.0,40.0,23.5475946913299,20.95135355733143,431.87,6282546,8.751907951010807,7.341086057629309,0.312,nc,1.0,2022-10-05,Nigeria,10,2022,2.1219217639571797,2436641.1429180508,0.0,,0.1300096592950903,0.26281178,0.27253109887242316,0.2545067757368088,1568039.5042540906,,1651127.0970404148,1598950.5258781852,1712189.1650965468
1240,2231,Niger,0.2292416951813499,0.1086369793072621,SURVEY 90 days,1.1543850321046338,0.9509756163980936,10.0,40.0,17.0,27.0,23.5475946913299,20.95135355733143,431.87,6109666,5.590434857522704,9.933226341153109,0.278,nc,3.0,2022-10-05,Nigeria,10,2022,9.388851620050351,1030131.6717775204,0.0,0.2292416951813499,0.1086369793072621,0.23085077,0.23782376945018768,0.22583250515162945,1400590.1908318573,1400590.1908318573,1410421.1070772707,1379761.1784197353,1453023.7982016504
2108,65701,Ebonyi,0.1575534046,0.2700552046,PREDICTION,0.8698784731027102,0.9973002051551176,4.0,4.0,4.0,5.0,23.5475946913299,20.95135355733143,431.87,2900754,8.016266262545862,6.262027249277776,0.32,,,2022-10-05,Nigeria,10,2022,6.052530347082098,5599375.086127473,0.0,,0.2700552046,0.18032399,0.19563912153244015,0.16681303195655345,457023.6686070684,,523075.53006488085,483883.5697001002,567500.9643417118
1922,2234,Osun,0.154505372,0.2720808387,PREDICTION,0.9214183830285868,0.9901726742820788,4.0,2.0,15.0,12.0,23.5475946913299,20.95135355733143,431.87,4762863,4.517762270027345,7.56291851875539,0.15,,,2022-10-05,Nigeria,10,2022,5.010304141813051,6760155.198419659,0.0,0.154505372,0.2720808387,0.15571348,0.16399281471967697,0.1467609703540802,735887.919600036,735887.919600036,741641.9900739938,699002.3955435455,781075.3094942048
62,2221,Abuja,0.0863476233454494,0.1011336812886823,SURVEY 90 days,1.145000785108986,0.9626609510407372,4.0,36.0,21.0,6.0,23.5475946913299,20.95135355733143,431.87,4346654,7.195557200236763,8.897617247031896,0.186,fixed,0.0,2022-10-05,Nigeria,10,2022,8.093857361595054,7158264.008480198,0.0,0.0863476233454494,0.1011336812886823,0.101038724,0.12383638881146902,0.09315817449241877,375323.242404991,375323.242404991,439180.3746294379,404926.35179017,538273.9347729271
2170,65702,Ekiti,0.1566643864,0.2662037313,PREDICTION,0.9779177163471964,0.99545287920853,0.0,0.0,5.0,2.0,23.5475946913299,20.95135355733143,431.87,3263741,5.309515526441268,7.720080403716114,0.125,,,2022-10-05,Nigeria,10,2022,0.0,6920075.579838639,0.0,,0.2662037313,0.19361717,0.21196534261107444,0.1819893829524517,511311.9811335224,,631916.2800036073,593966.2107066177,691799.9792588108
683,2223,Jigawa,0.3777068374797442,0.2360076333651318,SURVEY 90 days,1.314993959103874,1.0284538000739385,2.0,2.0,2.0,0.0,23.663908612780887,21.044981593377734,434.27,6366194,9.563558283105715,12.238420415697483,0.385,ne,5.0,2022-10-12,Nigeria,10,2022,2.480832167162807,3300473.564452695,0.0,0.3960606988274381,0.2218790429594345,0.39803183,0.4115143962204456,0.38460166603326795,2404555.0025225226,2521399.2445110437,2533947.852969408,2448448.8186909943,2619780.4801322236
2047,65700,Bayelsa,0.1658941954,0.2996686697,PREDICTION,0.7116274805268625,0.974623076198302,3.0,2.0,3.0,3.0,23.663908612780887,21.044981593377734,434.27,2394195,6.080417668394572,4.766315392876971,0.401,,,2022-10-12,Nigeria,10,2022,49.56312202804818,3082252.733161604,0.0,,0.3126555681,0.18329668,0.19454369656741619,0.16900585927069187,397183.053155703,,438847.9958510399,404632.9832365941,465775.545603225
1179,65705,Nassarawa,0.243526966663662,0.1191845787814925,SURVEY 90 days,1.0919506459139368,0.9585816017256116,1.0,2.0,6.0,10.0,23.663908612780887,21.044981593377734,434.27,2536680,8.19796255875058,8.510447350140884,0.243,nc,2.0,2022-10-12,Nigeria,10,2022,6.346797030183005,1154123.7815256508,0.0,0.2399952350852433,0.1380443996223261,0.2450602,0.2492325946688652,0.2399092759937048,617749.9857963781,608791.112936035,621639.3219852448,608573.0622277111,632223.338244617
621,65704,Gombe,0.3493435057577375,0.2289606157135155,SURVEY 90 days,0.983451866352339,0.9139312956555012,0.0,0.0,2.0,3.0,23.663908612780887,21.044981593377734,434.27,3545037,11.19199513759299,10.383587852103902,0.38,fixed,0.0,2022-10-12,Nigeria,10,2022,8.17420965825676,2463975.872950984,0.0,,0.2191963240337801,0.34689265,0.3539342567324638,0.33823115155100825,1238435.6536208924,,1229747.29663378,1199041.9468009316,1254710.0356840834
559,65703,Enugu,0.1614268667624913,0.1213377068048583,SURVEY 90 days,0.9945264272368234,0.9840800111420238,10.0,13.0,22.0,7.0,23.663908612780887,21.044981593377734,434.27,4361568,7.440611162631195,6.536244896216677,0.234,s,4.0,2022-10-12,Nigeria,10,2022,0.8010134347845391,6986076.713337876,0.0,0.1521786102768758,0.1158004469800164,0.1578363,0.1645748395472765,0.14838103391230106,704074.2564115457,663737.3568680926,688413.7689042091,647173.9693188071,717804.3537745357
311,2215,Benue,0.2686932613360404,0.1477407300256046,SURVEY 90 days,0.9280924406385398,0.9963198315277112,7.0,13.0,11.0,43.0,23.663908612780887,21.044981593377734,434.27,6282546,8.751907951010807,7.341086057629309,0.312,nc,1.0,2022-10-12,Nigeria,10,2022,2.1219217639571797,2436641.1429180508,0.0,,0.1300096592950903,0.2645135,0.27275289967656136,0.2559350855648518,1688077.7742336951,,1661818.1847810745,1607923.9480751173,1713582.6388513818
1365,65707,Plateau,0.2274553347703891,0.1365354516011924,SURVEY 90 days,1.0310526521991854,0.9675657642771712,9.0,34.0,25.0,49.0,23.663908612780887,21.044981593377734,434.27,4620441,9.512049503898895,9.232416150773494,0.365,ne,3.0,2022-10-12,Nigeria,10,2022,9.276632131225576,2118500.801670101,0.0,0.22139498837212,0.1355502824163276,0.2290409,0.23396477177739142,0.22345292009413242,1050943.9544418314,1022942.4814690665,1058269.9919890612,1032451.0335726533,1081020.4240759022
1799,2218,Delta,0.1587164253,0.2882407904,PREDICTION,0.7746800182281699,0.9446362948067604,9.0,12.0,12.0,7.0,23.663908612780887,21.044981593377734,434.27,5746119,5.936929598192746,5.704898234854848,0.173,,,2022-10-12,Nigeria,10,2022,20.867013050104013,4121794.1083982666,0.0,,0.2901741862,0.12468949,0.14786314517259597,0.11402426939457655,912003.4670284106,,716480.6453083456,655197.0208292948,849639.227876012
1985,2235,Oyo,0.1784945726,0.3072316349,PREDICTION,1.219518126200233,1.0025000206547583,3.0,5.0,12.0,3.0,23.663908612780887,21.044981593377734,434.27,7926302,3.612911625311882,8.158826810946747,0.19,,,2022-10-12,Nigeria,10,2022,3.8968937141083706,3499598.273847054,0.0,0.1788243055,0.3086569309,0.19211715,0.1992227051407099,0.1845214232802391,1414801.8877885253,1417415.450333261,1522778.5867263079,1462572.5263890058,1579099.3262022191
373,2216,Borno,0.3870976349840948,0.6013898615251905,SURVEY 30 days,1.1933887309162887,1.144923487823235,57.0,427.0,20.0,12.0,23.663908612780887,21.044981593377734,434.27,5884116,13.153346984526962,11.888980100206933,0.315,,,2022-10-12,Nigeria,10,2022,7.110502110408558,982676.1296852822,0.0,0.3473003640643912,0.5666972351433666,0.35836053,0.3687933154404163,0.3460930362343788,2277727.387572072,2043555.6289971091,2108634.922139168,2036451.5719952881,2170022.6480760006
311,2215,Benue,0.2686932613360404,0.1477407300256046,SURVEY 90 days,0.9280924406385398,0.9963198315277112,7.0,13.0,11.0,43.0,23.663908612780887,21.044981593377734,434.27,6282546,8.751907951010807,7.341086057629309,0.312,nc,1.0,2022-10-12,Nigeria,10,2022,2.1219217639571797,2436641.1429180508,0.0,0.2495866332302367,0.1300096592950903,0.25892246,0.2666858375072479,0.2478981927037239,1688077.7742336951,1568039.5042540906,1626692.2509019375,1557431.7989780097,1675466.0416878103
807,2225,Kano,0.3189350890588451,0.2007210741029229,SURVEY 90 days,1.1785088865333404,1.009140944414041,1.0,0.0,4.0,3.0,23.663908612780887,21.044981593377734,434.27,14936166,8.529557183153377,11.745201935123053,0.27,ne,4.0,2022-10-12,Nigeria,10,2022,7.981062865682501,8861001.919034759,0.0,0.3085407239804184,0.1967527264918298,0.3164377,0.32288344725966456,0.30904227420687674,4763667.433407694,4608415.471131709,4726365.888155758,4615906.708571429,4822640.766922595
249,65699,Bauchi,0.3645890838649349,0.2188048733192349,SURVEY 90 days,1.104770914260076,0.9701867302034374,1.0,3.0,8.0,2.0,23.663908612780887,21.044981593377734,434.27,7222452,9.990588234110133,10.796647164882812,0.298,ne,2.0,2022-10-12,Nigeria,10,2022,6.7705694498478675,1800653.3098478871,0.0,,0.2166242671233762,0.35287046,0.3627583138644695,0.33519263565540314,2633227.157938467,,2548589.9908046722,2420912.7217746377,2620004.5094870655
745,2224,Kaduna,0.2827096404830388,0.1595534292673775,SURVEY 90 days,0.990475975386601,0.9816157644908526,41.0,139.0,33.0,30.0,23.663908612780887,21.044981593377734,434.27,9391404,7.705978547518679,10.392367010531627,0.298,nw,2.0,2022-10-12,Nigeria,10,2022,6.893640683229361,2576065.484793514,0.0,0.2653277138759679,0.1538521925568076,0.27586028,0.2824490286409855,0.2676028788089752,2655040.4484709725,2491799.7534056203,2590715.3351408243,2513166.746458125,2652592.9373750654
1427,65708,Rivers,0.1693241779081767,0.153739346594581,SURVEY 90 days,0.7741345794193698,0.9656117410830182,5.0,7.0,16.0,11.0,23.663908612780887,21.044981593377734,434.27,7216862,6.9181814546659615,4.845392315480488,0.241,s,3.0,2022-10-12,Nigeria,10,2022,37.974570247399846,8692966.737064147,0.0,0.1739251366679784,0.1521107362949767,0.1731002,0.18071534037590026,0.1696253653615713,1221989.22522676,1255193.70966394,1249240.2792125344,1224162.8535140401,1304197.6727759002
2171,65702,Ekiti,0.1575188637,0.2641587853,PREDICTION,1.0463828994888276,0.991110015092438,0.0,0.0,5.0,2.0,23.663908612780887,21.044981593377734,434.27,3263741,5.309515526441268,7.720080403716114,0.125,,,2022-10-12,Nigeria,10,2022,0.0,6920075.579838639,0.0,0.1566643864,0.2662037313,0.16384141,0.17359205447137355,0.1540551297366619,514100.7737311017,511311.9811335224,534735.9321169704,502796.0431818627,566559.5054524551
1489,65709,Sokoto,0.3870528453921846,0.226825716724963,SURVEY 90 days,1.1768123329889673,1.107324285034353,1.0,1.0,11.0,42.0,23.663908612780887,21.044981593377734,434.27,5417315,5.318810473495564,13.0379933679968,0.409,nw,5.0,2022-10-12,Nigeria,10,2022,3.4150905837825727,2021728.1523809377,0.0,,0.2243708780509444,0.38435447,0.3914299502968788,0.37387919425964355,2096787.1851357624,,2082169.2473512888,2025421.367250681,2120499.341192536
125,2211,Adamawa,0.447190073351019,0.5549908191180314,SURVEY 30 days,0.9021160995410152,0.9329245944505896,2.0,4.0,11.0,7.0,23.663908612780887,21.044981593377734,434.27,4946724,12.400240775699976,9.323227331978972,0.283,,,2022-10-12,Nigeria,10,2022,8.912189238124059,1589050.3233018126,0.0,0.4958795391941462,0.582622967106057,0.49819726,0.5114590391516686,0.4829372353851795,2212125.868407246,2452979.2176406235,2464444.3305022717,2388957.212773517,2530046.7039884985
993,2228,Kogi,0.2885167494341078,0.1580438154293597,SURVEY 90 days,1.0212744519790595,0.9657572582545024,5.0,19.0,10.0,16.0,23.663908612780887,21.044981593377734,434.27,4510378,6.686754336473293,7.736607886003764,0.25,nc,5.0,2022-10-12,Nigeria,10,2022,5.410010761176255,1904011.0166260053,0.0,0.3007955244403319,0.1751187788273328,0.30286795,0.3139460802078247,0.2938689269125462,1301319.5992791124,1356701.5159341353,1366048.9341150522,1325459.9428299563,1416015.493355608
1737,2213,Anambra,0.1517094076,0.2509630919,PREDICTION,0.8982178897845873,0.8979100931824403,10.0,23.0,13.0,8.0,23.663908612780887,21.044981593377734,434.27,5494926,6.932186088031399,6.222775876473439,0.109,,,2022-10-12,Nigeria,10,2022,6.98268221738697,13994079.803680744,0.0,0.1479658186,0.2520663142,0.1468121,0.1556775350123644,0.13237048201262952,833631.9682658376,813061.2237364235,806721.6047334373,727366.0032437303,855436.5347553514
869,2226,Katsina,0.3090201107999787,0.2134595886931613,SURVEY 90 days,1.1790175742731126,1.0831105758720003,23.0,50.0,39.0,29.0,23.663908612780887,21.044981593377734,434.27,7831200,7.628834204597841,12.37830070781455,0.304,nw,3.0,2022-10-12,Nigeria,10,2022,3.738369025539354,3931429.115546426,0.0,0.2792161764909565,0.2293647561626378,0.29735196,0.30770786926150323,0.2819144904613495,2419998.2916967934,2186597.7213359782,2328622.6407051086,2207728.75770092,2409721.865760684
63,2221,Abuja,0.0815624957401514,0.0957632305141914,SURVEY 90 days,1.157401612874805,0.9596882407207442,7.0,38.0,23.0,8.0,23.663908612780887,21.044981593377734,434.27,4346654,7.195557200236763,8.897617247031896,0.186,fixed,0.0,2022-10-12,Nigeria,10,2022,8.093857361595054,7158264.008480198,0.0,0.0863476233454494,0.1011336812886823,0.10185112,0.1284481059759855,0.09319782964885234,354523.948358912,375323.242404991,442711.5807220638,405098.71903450263,558319.4736329413
1861,2222,Imo,0.1465403736,0.2650026977,PREDICTION,0.874550774810252,0.9776613473747072,10.0,20.0,19.0,23.0,23.663908612780887,21.044981593377734,434.27,5464002,7.062307590787432,5.573020020443396,0.142,,,2022-10-12,Nigeria,10,2022,9.382433903350265,13194968.10841433,0.0,,0.2663261294,0.15251411,0.17581629529595375,0.13662747777998446,800696.8944311471,,833337.4292567074,746532.8118447907,960660.5891296818
1055,2229,Kwara,0.1826298207116076,0.1203765430449086,SURVEY 90 days,1.22748406101694,0.9745046550763122,2.0,4.0,12.0,6.0,23.663908612780887,21.044981593377734,434.27,3201976,4.385168582923295,8.9659337636487,0.185,nc,4.0,2022-10-12,Nigeria,10,2022,5.064545752306378,1157517.3725225476,0.0,,0.1330322974594477,0.18940613,0.20283033177256582,0.18173304460942746,584776.3028028705,,606473.8720667362,581904.8472463161,649457.8544077933
1799,2218,Delta,0.1587164253,0.2882407904,PREDICTION,0.7746800182281699,0.9446362948067604,9.0,12.0,12.0,7.0,23.663908612780887,21.044981593377734,434.27,5746119,5.936929598192746,5.704898234854848,0.173,,,2022-10-12,Nigeria,10,2022,20.867013050104013,4121794.1083982666,0.0,0.158039242,0.2901741862,0.15711835,0.16773244701325893,0.14508668147027493,912003.4670284106,908112.291201798,902820.7377202213,833685.3370432947,963810.6006993804
187,2212,Akwa Ibom,0.1753919151250873,0.1232470523159331,SURVEY 90 days,0.7860104343255562,0.9821412292979048,1.0,2.0,4.0,1.0,23.663908612780887,21.044981593377734,434.27,5449818,7.84736624649367,4.906643134561908,0.293,s,1.0,2022-10-12,Nigeria,10,2022,4.773607092678418,9918206.576131117,0.0,0.1582982951807885,0.1303398895864095,0.16840488,0.1746892746537924,0.15650573298335074,955854.016103173,862696.8984455745,917775.9309750795,852927.7607158585,952024.7534151815
1055,2229,Kwara,0.1826298207116076,0.1203765430449086,SURVEY 90 days,1.22748406101694,0.9745046550763122,2.0,4.0,12.0,6.0,23.663908612780887,21.044981593377734,434.27,3201976,4.385168582923295,8.9659337636487,0.185,nc,4.0,2022-10-12,Nigeria,10,2022,5.064545752306378,1157517.3725225476,0.0,0.1763354608965502,0.1330322974594477,0.18052943,0.18614407181739806,0.1761677112430334,584776.3028028705,564621.9137396922,578050.9037822485,564084.7833751232,596028.8505015849
1365,65707,Plateau,0.2274553347703891,0.1365354516011924,SURVEY 90 days,1.0310526521991854,0.9675657642771712,9.0,34.0,25.0,49.0,23.663908612780887,21.044981593377734,434.27,4620441,9.512049503898895,9.232416150773494,0.365,ne,3.0,2022-10-12,Nigeria,10,2022,9.276632131225576,2118500.801670101,0.0,,0.1355502824163276,0.25826126,0.283889115601778,0.24495838358998298,1050943.9544418314,,1193280.9299889207,1131815.7588328845,1311692.9091801946
2171,65702,Ekiti,0.1575188637,0.2641587853,PREDICTION,1.0463828994888276,0.991110015092438,0.0,0.0,5.0,2.0,23.663908612780887,21.044981593377734,434.27,3263741,5.309515526441268,7.720080403716114,0.125,,,2022-10-12,Nigeria,10,2022,0.0,6920075.579838639,0.0,,0.2662037313,0.19305366,0.21092587038874627,0.18217069916427137,514100.7737311017,,630077.1544052958,594557.9798610982,688407.4111484372
373,2216,Borno,0.3870976349840948,0.6013898615251905,SURVEY 30 days,1.1933887309162887,1.144923487823235,57.0,427.0,20.0,12.0,23.663908612780887,21.044981593377734,434.27,5884116,13.153346984526962,11.888980100206933,0.315,,,2022-10-12,Nigeria,10,2022,7.110502110408558,982676.1296852822,0.0,,0.5666972351433666,0.3761267,0.4041030965745449,0.3485169917345047,2277727.387572072,,2213173.172333479,2050714.4073368667,2377789.496203825
1923,2234,Osun,0.1574094892,0.2703661323,PREDICTION,1.0039729702156983,0.9874458904769742,3.0,2.0,15.0,12.0,23.663908612780887,21.044981593377734,434.27,4762863,4.517762270027345,7.56291851875539,0.15,,,2022-10-12,Nigeria,10,2022,5.010304141813051,6760155.198419659,0.0,,0.2720808387,0.20593175,0.2225394796580076,0.19427367188036443,749719.8319595796,,980824.726508528,925298.8836731282,1059925.053702377
745,2224,Kaduna,0.2827096404830388,0.1595534292673775,SURVEY 90 days,0.990475975386601,0.9816157644908526,41.0,139.0,33.0,30.0,23.663908612780887,21.044981593377734,434.27,9391404,7.705978547518679,10.392367010531627,0.298,nw,2.0,2022-10-12,Nigeria,10,2022,6.893640683229361,2576065.484793514,0.0,,0.1538521925568076,0.27887976,0.2990611135959625,0.2694675028324127,2655040.4484709725,,2619072.5095095634,2530678.183970332,2808603.7384695765
1737,2213,Anambra,0.1517094076,0.2509630919,PREDICTION,0.8982178897845873,0.8979100931824403,10.0,23.0,13.0,8.0,23.663908612780887,21.044981593377734,434.27,5494926,6.932186088031399,6.222775876473439,0.109,,,2022-10-12,Nigeria,10,2022,6.98268221738697,13994079.803680744,0.0,,0.2520663142,0.13522546,0.15155659057199955,0.12265598643571138,833631.9682658376,,743053.8956493437,673985.5689212378,832792.2500054352
2047,65700,Bayelsa,0.1658941954,0.2996686697,PREDICTION,0.7116274805268625,0.974623076198302,3.0,2.0,3.0,3.0,23.663908612780887,21.044981593377734,434.27,2394195,6.080417668394572,4.766315392876971,0.401,,,2022-10-12,Nigeria,10,2022,49.56312202804818,3082252.733161604,0.0,0.1667830646,0.3126555681,0.17139447,0.17664114721119403,0.1650401432067156,397183.053155703,399311.179349997,410351.776766181,395138.2856648024,422913.3514473047
125,2211,Adamawa,0.447190073351019,0.5549908191180314,SURVEY 30 days,0.9021160995410152,0.9329245944505896,2.0,4.0,11.0,7.0,23.663908612780887,21.044981593377734,434.27,4946724,12.400240775699976,9.323227331978972,0.283,,,2022-10-12,Nigeria,10,2022,8.912189238124059,1589050.3233018126,0.0,,0.582622967106057,0.24494925,0.2720658086240292,0.22476625218987464,2212125.868407246,,1211696.3407484293,1111856.6140977053,1345834.465099892
2233,65706,Ondo,0.1604799181,0.2877391577,PREDICTION,0.9225543510272252,0.9912437510276072,2.0,1.0,6.0,2.0,23.663908612780887,21.044981593377734,434.27,4701603,5.150609211703119,6.917995342607632,0.095,,,2022-10-12,Nigeria,10,2022,4.575001375560877,3811452.282575353,0.0,,0.2885801196,0.18123135,0.19716983698308466,0.17076459862291812,754512.8643787144,,852077.8574748337,802867.3491793077,927014.2970691818
1427,65708,Rivers,0.1693241779081767,0.153739346594581,SURVEY 90 days,0.7741345794193698,0.9656117410830182,5.0,7.0,16.0,11.0,23.663908612780887,21.044981593377734,434.27,7216862,6.9181814546659615,4.845392315480488,0.241,s,3.0,2022-10-12,Nigeria,10,2022,37.974570247399846,8692966.737064147,0.0,,0.1521107362949767,0.17057109,0.18162616156041622,0.16055584475398063,1221989.22522676,,1230988.0089936256,1158709.3748829023,1310770.9435712285
249,65699,Bauchi,0.3645890838649349,0.2188048733192349,SURVEY 90 days,1.104770914260076,0.9701867302034374,1.0,3.0,8.0,2.0,23.663908612780887,21.044981593377734,434.27,7222452,9.990588234110133,10.796647164882812,0.298,ne,2.0,2022-10-12,Nigeria,10,2022,6.7705694498478675,1800653.3098478871,0.0,0.3485781325246689,0.2166242671233762,0.3558163,0.36339842826128005,0.34833563640713694,2633227.157938467,2517588.8304090598,2569866.1813952923,2515837.413839999,2624627.704992539
621,65704,Gombe,0.3493435057577375,0.2289606157135155,SURVEY 90 days,0.983451866352339,0.9139312956555012,0.0,0.0,2.0,3.0,23.663908612780887,21.044981593377734,434.27,3545037,11.19199513759299,10.383587852103902,0.38,fixed,0.0,2022-10-12,Nigeria,10,2022,8.17420965825676,2463975.872950984,0.0,0.35280306864051,0.2191963240337801,0.3553437,0.36345267444849017,0.3495853625237942,1238435.6536208924,1250699.9320441475,1259706.562285781,1239293.0448052639,1288453.1786688522
559,65703,Enugu,0.1614268667624913,0.1213377068048583,SURVEY 90 days,0.9945264272368234,0.9840800111420238,10.0,13.0,22.0,7.0,23.663908612780887,21.044981593377734,434.27,4361568,7.440611162631195,6.536244896216677,0.234,s,4.0,2022-10-12,Nigeria,10,2022,0.8010134347845391,6986076.713337876,0.0,,0.1158004469800164,0.16816589,0.17856085151433942,0.1624070644378662,704074.2564115457,,733466.974820137,708349.4552261352,778805.2960176944
807,2225,Kano,0.3189350890588451,0.2007210741029229,SURVEY 90 days,1.1785088865333404,1.009140944414041,1.0,0.0,4.0,3.0,23.663908612780887,21.044981593377734,434.27,14936166,8.529557183153377,11.745201935123053,0.27,ne,4.0,2022-10-12,Nigeria,10,2022,7.981062865682501,8861001.919034759,0.0,,0.1967527264918298,0.3347528,0.3583542913198471,0.32215785309672357,4763667.433407694,,4999923.361093998,4811803.172056277,5352439.181965595
2109,65701,Ebonyi,0.1584095359,0.2664361596,PREDICTION,0.9315064046862476,0.996876019481161,6.0,6.0,4.0,5.0,23.663908612780887,21.044981593377734,434.27,2900754,8.016266262545862,6.262027249277776,0.32,,,2022-10-12,Nigeria,10,2022,6.052530347082098,5599375.086127473,0.0,0.1575534046,0.2700552046,0.1659495,0.17393911257386208,0.15428552217781544,459507.09490006865,457023.6686070684,481378.6574934125,447544.34559938684,504554.5765550807
1551,2239,Taraba,0.2650255367714054,0.206831373218103,SURVEY 90 days,0.9173889070059852,0.961780503331336,4.0,26.0,10.0,14.0,23.663908612780887,21.044981593377734,434.27,3402075,10.786479442315445,8.023131156568944,0.34,ne,1.0,2022-10-12,Nigeria,10,2022,6.57087117789129,708400.531222387,0.0,0.2485401718646258,0.1950554339508683,0.2570427,0.2666462011635303,0.24863351806998252,901636.753011579,845552.3051963468,874478.5640582442,845869.8759879358,907150.3748234174
1985,2235,Oyo,0.1784945726,0.3072316349,PREDICTION,1.219518126200233,1.0025000206547583,3.0,5.0,12.0,3.0,23.663908612780887,21.044981593377734,434.27,7926302,3.612911625311882,8.158826810946747,0.19,,,2022-10-12,Nigeria,10,2022,3.8968937141083706,3499598.273847054,0.0,,0.3086569309,0.19114713,0.20860652625560758,0.17948986552655696,1414801.8877885253,,1515089.9082039893,1422690.8801028796,1653478.3262728748
993,2228,Kogi,0.2885167494341078,0.1580438154293597,SURVEY 90 days,1.0212744519790595,0.9657572582545024,5.0,19.0,10.0,16.0,23.663908612780887,21.044981593377734,434.27,4510378,6.686754336473293,7.736607886003764,0.25,nc,5.0,2022-10-12,Nigeria,10,2022,5.410010761176255,1904011.0166260053,0.0,,0.1751187788273328,0.27591088,0.2885383993387222,0.25349477827548983,1301319.5992791124,,1244462.3817942739,1143357.2710486474,1301417.2485325872
1241,2231,Niger,0.2433985136474088,0.1123068493862344,SURVEY 90 days,1.1516735085534455,0.9469681931972432,8.0,37.0,19.0,28.0,23.663908612780887,21.044981593377734,434.27,6109666,5.590434857522704,9.933226341153109,0.278,nc,3.0,2022-10-12,Nigeria,10,2022,9.388851620050351,1030131.6717775204,0.0,0.2292416951813499,0.1086369793072621,0.23499286,0.24128144048154354,0.22787700407207012,1487083.6232821096,1400590.1908318573,1435727.897662878,1392252.3839609884,1474149.0133411102
2233,65706,Ondo,0.1604799181,0.2877391577,PREDICTION,0.9225543510272252,0.9912437510276072,2.0,1.0,6.0,2.0,23.663908612780887,21.044981593377734,434.27,4701603,5.150609211703119,6.917995342607632,0.095,,,2022-10-12,Nigeria,10,2022,4.575001375560877,3811452.282575353,0.0,0.159828037,0.2885801196,0.16815737,0.1743099208921194,0.15873249098658562,754512.8643787144,751447.978243311,790609.1900847852,746297.155820004,819536.0469961513
1489,65709,Sokoto,0.3870528453921846,0.226825716724963,SURVEY 90 days,1.1768123329889673,1.107324285034353,1.0,1.0,11.0,42.0,23.663908612780887,21.044981593377734,434.27,5417315,5.318810473495564,13.0379933679968,0.409,nw,5.0,2022-10-12,Nigeria,10,2022,3.4150905837825727,2021728.1523809377,0.0,0.3831650340331691,0.2243708780509444,0.3896608,0.4005985915660858,0.38298899978399276,2096787.1851357624,2075725.6863433975,2110915.3263510764,2074772.0533648208,2170168.75906983
435,2217,Cross River,0.1538577431032944,0.1239548833633536,SURVEY 90 days,0.8560205942084737,0.9880604534245994,5.0,12.0,7.0,0.0,23.663908612780887,21.044981593377734,434.27,3666248,8.598974758863495,5.873919917501246,0.299,s,5.0,2022-10-12,Nigeria,10,2022,6.604995961527632,2142478.3299702806,0.0,,0.1122547141943184,0.1610128,0.17433334738016126,0.1539937648922205,564080.6429369668,,590312.8506500721,564579.3325485736,639149.2861658215
1117,2230,Lagos,0.1318340505615284,0.114135078451546,SURVEY 90 days,0.7647316499751187,0.9574581274137176,4.0,4.0,11.0,8.0,23.663908612780887,21.044981593377734,434.27,12631475,3.586974900291951,6.522424330455863,0.101,fixed,0.0,2022-10-12,Nigeria,10,2022,5.586413295128642,42081677.085942894,0.0,0.126308799493743,0.1121676053632074,0.1248689,0.13477985188364983,0.11013460494577884,1665258.5138166817,1595466.4430852272,1577278.3833704889,1391162.5090074819,1702468.3295720257
1551,2239,Taraba,0.2650255367714054,0.206831373218103,SURVEY 90 days,0.9173889070059852,0.961780503331336,4.0,26.0,10.0,14.0,23.663908612780887,21.044981593377734,434.27,3402075,10.786479442315445,8.023131156568944,0.34,ne,1.0,2022-10-12,Nigeria,10,2022,6.57087117789129,708400.531222387,0.0,,0.1950554339508683,0.28137827,0.29803022518754,0.2700413130223751,901636.753011579,,957269.9751734734,918700.8000005968,1013921.1783549002
2109,65701,Ebonyi,0.1584095359,0.2664361596,PREDICTION,0.9315064046862476,0.996876019481161,6.0,6.0,4.0,5.0,23.663908612780887,21.044981593377734,434.27,2900754,8.016266262545862,6.262027249277776,0.32,,,2022-10-12,Nigeria,10,2022,6.052530347082098,5599375.086127473,0.0,,0.2700552046,0.18125585,0.19627176485955714,0.16818748973309994,459507.09490006865,,525778.6238341928,487870.5335932486,569336.1070034198
1,65698,Abia,0.1949747555932176,0.1272468828257623,SURVEY 90 days,0.8380588982913002,0.9890120215123374,5.0,3.0,6.0,42.0,23.663908612780887,21.044981593377734,434.27,3802539,7.523189981967188,5.453302118919583,0.101,s,2.0,2022-10-12,Nigeria,10,2022,2.263606106309577,9589224.656305324,0.0,,0.1247879212309664,0.19956425,0.213604898750782,0.1934143252670765,741399.1121586781,,758850.8372555673,735465.5149867438,812240.9580908999
1241,2231,Niger,0.2433985136474088,0.1123068493862344,SURVEY 90 days,1.1516735085534455,0.9469681931972432,8.0,37.0,19.0,28.0,23.663908612780887,21.044981593377734,434.27,6109666,5.590434857522704,9.933226341153109,0.278,nc,3.0,2022-10-12,Nigeria,10,2022,9.388851620050351,1030131.6717775204,0.0,,0.1086369793072621,0.26808053,0.2947050280869007,0.25531921088695525,1487083.6232821096,,1637882.514987588,1559915.1019028604,1800549.2901315822
1303,2232,Ogun,0.1546331720592944,0.1104193786418952,SURVEY 90 days,0.8299418625100906,0.9957626218113386,6.0,1.0,3.0,2.0,23.663908612780887,21.044981593377734,434.27,5408787,3.4732617764948586,6.995135100939411,0.289,fixed,0.0,2022-10-12,Nigeria,10,2022,5.663668766732277,3965325.0329528977,0.0,,0.1082469355547356,0.17271042,0.18563335314393042,0.1623584434390068,836377.8908030747,,934153.8674354553,878162.2382131353,1004051.2672513
435,2217,Cross River,0.1538577431032944,0.1239548833633536,SURVEY 90 days,0.8560205942084737,0.9880604534245994,5.0,12.0,7.0,0.0,23.663908612780887,21.044981593377734,434.27,3666248,8.598974758863495,5.873919917501246,0.299,s,5.0,2022-10-12,Nigeria,10,2022,6.604995961527632,2142478.3299702806,0.0,0.1501905289454733,0.1122547141943184,0.15344085,0.16044434458017348,0.14640758708119392,564080.6429369668,550635.7263652836,562552.2020722628,536766.523321253,588228.7574283718
1613,2240,Yobe,0.4608089231954757,0.5536264390524167,SURVEY 30 days,1.3301002856762962,1.1078090813775634,5.0,8.0,1.0,1.0,23.663908612780887,21.044981593377734,434.27,4340967,11.43706583990847,12.29868022093661,0.37,,,2022-10-12,Nigeria,10,2022,2.999205945765202,1164832.327535513,0.0,,0.5535041069736237,0.38747537,0.3958038166165352,0.3717677265405655,2000356.3288970944,,1682017.800389886,1613831.432577619,1718171.306406431
497,2219,Edo,0.132803799581652,0.1014482313741656,SURVEY 90 days,0.950472251872342,0.981803389785634,11.0,17.0,5.0,0.0,23.663908612780887,21.044981593377734,434.27,4275642,5.930214659778057,6.633537264421524,0.126,fixed,0.0,2022-10-12,Nigeria,10,2022,4.106835383110302,2679294.9743232727,0.0,,0.0954440952033172,0.14910749,0.1713644579052925,0.14082586206495762,567821.5032508938,,637530.2296970487,602120.9705311395,732693.0735271006
1179,65705,Nassarawa,0.243526966663662,0.1191845787814925,SURVEY 90 days,1.0919506459139368,0.9585816017256116,1.0,2.0,6.0,10.0,23.663908612780887,21.044981593377734,434.27,2536680,8.19796255875058,8.510447350140884,0.243,nc,2.0,2022-10-12,Nigeria,10,2022,6.346797030183005,1154123.7815256508,0.0,,0.1380443996223261,0.2420007,0.25211811140179635,0.2235274001955986,617749.9857963781,,613878.3332490921,567017.4855281711,639542.9708307087
497,2219,Edo,0.132803799581652,0.1014482313741656,SURVEY 90 days,0.950472251872342,0.981803389785634,11.0,17.0,5.0,0.0,23.663908612780887,21.044981593377734,434.27,4275642,5.930214659778057,6.633537264421524,0.126,fixed,0.0,2022-10-12,Nigeria,10,2022,4.106835383110302,2679294.9743232727,0.0,0.1309559288802667,0.0954440952033172,0.13000256,0.1366790510714054,0.1165596954524517,567821.5032508938,559920.6696694812,555844.3980814219,498367.5293837115,584390.6912810459
1303,2232,Ogun,0.1546331720592944,0.1104193786418952,SURVEY 90 days,0.8299418625100906,0.9957626218113386,6.0,1.0,3.0,2.0,23.663908612780887,21.044981593377734,434.27,5408787,3.4732617764948586,6.995135100939411,0.289,fixed,0.0,2022-10-12,Nigeria,10,2022,5.663668766732277,3965325.0329528977,0.0,0.1372846782250958,0.1082469355547356,0.14827561,0.15696013234555722,0.13908980041742325,836377.8908030747,742543.5828830812,801991.2122561932,752307.1043303534,848963.9233489294
1675,65710,Zamfara,0.3809939325382065,0.230856068868362,SURVEY 90 days,1.0422041324166451,1.0946679144620708,8.0,63.0,38.0,87.0,23.663908612780887,21.044981593377734,434.27,3483746,6.246534745910911,12.10150481045647,0.328,nw,4.0,2022-10-12,Nigeria,10,2022,4.699968878465895,1251860.2019380694,0.0,,0.2330362881203905,0.38174927,0.397658197581768,0.36312802582979203,1327286.088504247,,1329917.500540018,1265045.8074724346,1385340.155192694
1923,2234,Osun,0.1574094892,0.2703661323,PREDICTION,1.0039729702156983,0.9874458904769742,3.0,2.0,15.0,12.0,23.663908612780887,21.044981593377734,434.27,4762863,4.517762270027345,7.56291851875539,0.15,,,2022-10-12,Nigeria,10,2022,5.010304141813051,6760155.198419659,0.0,0.154505372,0.2720808387,0.15767947,0.1667908515781164,0.14897509701550007,749719.8319595796,735887.919600036,751005.7058702409,709547.9774965358,794401.9757199022
1675,65710,Zamfara,0.3809939325382065,0.230856068868362,SURVEY 90 days,1.0422041324166451,1.0946679144620708,8.0,63.0,38.0,87.0,23.663908612780887,21.044981593377734,434.27,3483746,6.246534745910911,12.10150481045647,0.328,nw,4.0,2022-10-12,Nigeria,10,2022,4.699968878465895,1251860.2019380694,0.0,0.3585218991541131,0.2330362881203905,0.37222207,0.38136993944644926,0.3585702106356621,1327286.088504247,1248999.232090545,1296727.1332800388,1249167.5370211452,1328596.0010668098
1117,2230,Lagos,0.1318340505615284,0.114135078451546,SURVEY 90 days,0.7647316499751187,0.9574581274137176,4.0,4.0,11.0,8.0,23.663908612780887,21.044981593377734,434.27,12631475,3.586974900291951,6.522424330455863,0.101,fixed,0.0,2022-10-12,Nigeria,10,2022,5.586413295128642,42081677.085942894,0.0,,0.1121676053632074,0.14928487,0.16287607997655867,0.14133660160005093,1665258.5138166817,,1885688.096114248,1785289.7496960033,2057365.1323219014
683,2223,Jigawa,0.3777068374797442,0.2360076333651318,SURVEY 90 days,1.314993959103874,1.0284538000739385,2.0,2.0,2.0,0.0,23.663908612780887,21.044981593377734,434.27,6366194,9.563558283105715,12.238420415697483,0.385,ne,5.0,2022-10-12,Nigeria,10,2022,2.480832167162807,3300473.564452695,0.0,,0.2218790429594345,0.38405854,0.3938408099114895,0.3757632449269295,2404555.0025225226,,2444991.1417962313,2392181.715274349,2507267.001013665
63,2221,Abuja,0.0815624957401514,0.0957632305141914,SURVEY 90 days,1.157401612874805,0.9596882407207442,7.0,38.0,23.0,8.0,23.663908612780887,21.044981593377734,434.27,4346654,7.195557200236763,8.897617247031896,0.186,fixed,0.0,2022-10-12,Nigeria,10,2022,8.093857361595054,7158264.008480198,0.0,,0.1011336812886823,0.12154261,0.1636652991175651,0.11087702903896571,354523.948358912,,528303.6729182452,481944.08178033645,711396.4270705609
1861,2222,Imo,0.1465403736,0.2650026977,PREDICTION,0.874550774810252,0.9776613473747072,10.0,20.0,19.0,23.0,23.663908612780887,21.044981593377734,434.27,5464002,7.062307590787432,5.573020020443396,0.142,,,2022-10-12,Nigeria,10,2022,9.382433903350265,13194968.10841433,0.0,0.1450535059,0.2663261294,0.14586914,0.15471515581011772,0.1340827729552984,800696.8944311471,792572.6463446118,797029.2500588894,732628.5395932965,845363.9207767948
931,2227,Kebbi,0.3726823453413408,0.2148692624950936,SURVEY 90 days,1.2184937737882748,0.9839483060584944,2.0,2.0,6.0,10.0,23.663908612780887,21.044981593377734,434.27,4915325,4.51668666929484,11.743956421859846,0.385,nw,1.0,2022-10-12,Nigeria,10,2022,5.980954530481244,1619425.8096421403,0.0,0.3736801745526864,0.2039642586533264,0.3737973,0.38409414142370224,0.36909218728542326,1831854.849114926,1836759.503983183,1837335.2012246847,1814208.0554687232,1887947.5356934592
1,65698,Abia,0.1949747555932176,0.1272468828257623,SURVEY 90 days,0.8380588982913002,0.9890120215123374,5.0,3.0,6.0,42.0,23.663908612780887,21.044981593377734,434.27,3802539,7.523189981967188,5.453302118919583,0.101,s,2.0,2022-10-12,Nigeria,10,2022,2.263606106309577,9589224.656305324,0.0,0.1774571579514814,0.1247879212309664,0.18722427,0.1932778473943472,0.17885455936193467,741399.1121586781,674787.7639396681,711927.5842891932,680101.4373015717,734946.5525530536
187,2212,Akwa Ibom,0.1753919151250873,0.1232470523159331,SURVEY 90 days,0.7860104343255562,0.9821412292979048,1.0,2.0,4.0,1.0,23.663908612780887,21.044981593377734,434.27,5449818,7.84736624649367,4.906643134561908,0.293,s,1.0,2022-10-12,Nigeria,10,2022,4.773607092678418,9918206.576131117,0.0,,0.1303398895864095,0.18757841,0.20090998597443105,0.17710457295179366,955854.016103173,,1022268.1947399974,965187.6895549982,1094922.857943202
931,2227,Kebbi,0.3726823453413408,0.2148692624950936,SURVEY 90 days,1.2184937737882748,0.9839483060584944,2.0,2.0,6.0,10.0,23.663908612780887,21.044981593377734,434.27,4915325,4.51668666929484,11.743956421859846,0.385,nw,1.0,2022-10-12,Nigeria,10,2022,5.980954530481244,1619425.8096421403,0.0,,0.2039642586533264,0.3635152,0.37239975705742834,0.35083731785416605,1831854.849114926,,1786795.3417435288,1724479.4393815286,1830465.835858304
1613,2240,Yobe,0.4608089231954757,0.5536264390524167,SURVEY 30 days,1.3301002856762962,1.1078090813775634,5.0,8.0,1.0,1.0,23.663908612780887,21.044981593377734,434.27,4340967,11.43706583990847,12.29868022093661,0.37,,,2022-10-12,Nigeria,10,2022,2.999205945765202,1164832.327535513,0.0,0.43951903065026,0.5535041069736237,0.4499855,0.4618561252951622,0.44088452532887457,2000356.3288970944,1907937.607924767,1953372.2239952087,1913865.1752633087,2004902.1986541643
869,2226,Katsina,0.3090201107999787,0.2134595886931613,SURVEY 90 days,1.1790175742731126,1.0831105758720003,23.0,50.0,39.0,29.0,23.663908612780887,21.044981593377734,434.27,7831200,7.628834204597841,12.37830070781455,0.304,nw,3.0,2022-10-12,Nigeria,10,2022,3.738369025539354,3931429.115546426,0.0,,0.2293647561626378,0.3334226,0.3598066046833992,0.3141958795487881,2419998.2916967934,,2611099.0746974945,2460530.771922469,2817717.482596636
2,65698,Abia,0.201687264828878,0.1252821700391436,SURVEY 90 days,0.7788204900867346,0.9884443799514608,6.0,4.0,6.0,42.0,23.799551027797,21.154073390465538,435.98,3802539,7.523189981967188,5.453302118919583,0.101,s,2.0,2022-10-19,Nigeria,10,2022,2.263606106309577,9589224.656305324,0.0,,0.1272468828257623,0.20262863,0.2136890072375536,0.19457781501114368,766923.6903151369,,770503.2582790107,739889.7301146593,812560.7838920798
1056,2229,Kwara,0.1900326744399744,0.1121117164596662,SURVEY 90 days,1.1829332813032765,0.9716090633375588,2.0,4.0,12.0,5.0,23.799551027797,21.154073390465538,435.98,3201976,4.385168582923295,8.9659337636487,0.185,nc,4.0,2022-10-19,Nigeria,10,2022,5.064545752306378,1157517.3725225476,0.0,,0.1203765430449086,0.18998197,0.20088371299207208,0.1817571960389614,608480.0627726115,,608317.6994416714,581982.1795440494,643224.827791503
1614,2240,Yobe,0.4675401823586012,0.5384977913308309,SURVEY 30 days,1.3345941586417966,1.1117624744880508,5.0,8.0,1.0,1.0,23.799551027797,21.154073390465538,435.98,4340967,11.43706583990847,12.29868022093661,0.37,,,2022-10-19,Nigeria,10,2022,2.999205945765202,1164832.327535513,0.0,,0.5536264390524167,0.39072,0.39941221103072166,0.3785661444067955,2029576.50279267,,1696102.6687978506,1643343.1401871338,1733835.2274813987
64,2221,Abuja,0.0903787991598815,0.0979742217808479,SURVEY 90 days,1.121842294039345,0.9564928573423296,7.0,38.0,20.0,7.0,23.799551027797,21.154073390465538,435.98,4346654,7.195557200236763,8.897617247031896,0.186,fixed,0.0,2022-10-19,Nigeria,10,2022,8.093857361595054,7158264.008480198,0.0,0.0815624957401514,0.0957632305141914,0.1019502,0.12650718018412588,0.0936574263498187,392845.36888349557,354523.948358912,443142.2377280593,407096.42687314487,549882.9407760515
1428,65708,Rivers,0.1675586731174448,0.150913024464835,SURVEY 90 days,0.7335024887488304,0.964867106152217,5.0,5.0,17.0,14.0,23.799551027797,21.154073390465538,435.98,7216862,6.9181814546659615,4.845392315480488,0.241,s,3.0,2022-10-19,Nigeria,10,2022,37.974570247399846,8692966.737064147,0.0,,0.153739346594581,0.17970404,0.19380474239587783,0.17233909480273724,1209247.8207917088,,1296899.259607613,1243747.4643962719,1398662.0808165998
684,2223,Jigawa,0.3852685888312414,0.2449193088984454,SURVEY 90 days,1.3873645180439478,1.03611605506806,2.0,2.0,2.0,0.0,23.799551027797,21.154073390465538,435.98,6366194,9.563558283105715,12.238420415697483,0.385,ne,5.0,2022-10-19,Nigeria,10,2022,2.480832167162807,3300473.564452695,0.0,0.3777068374797442,0.2360076333651318,0.38585106,0.3954415827989578,0.3789759263396263,2452694.578605916,2404555.0025225226,2456402.6736772656,2412634.268407771,2517457.8317652284
436,2217,Cross River,0.1390794554599306,0.1226844927359659,SURVEY 90 days,0.8499738715980885,0.9883581217019204,5.0,12.0,5.0,0.0,23.799551027797,21.154073390465538,435.98,3666248,8.598974758863495,5.873919917501246,0.299,s,5.0,2022-10-19,Nigeria,10,2022,6.604995961527632,2142478.3299702806,0.0,0.1538577431032944,0.1239548833633536,0.15399203,0.1672670494765043,0.14642586335539817,509899.7754210597,564080.6429369668,564572.9611670971,536833.5286750018,613242.485609135
932,2227,Kebbi,0.357396939988069,0.222240200130236,SURVEY 90 days,1.163736420992299,0.9827858121364552,2.0,2.0,6.0,10.0,23.799551027797,21.154073390465538,435.98,4915325,4.51668666929484,11.743956421859846,0.385,nw,1.0,2022-10-19,Nigeria,10,2022,5.980954530481244,1619425.8096421403,0.0,,0.2148692624950936,0.35918242,0.3680983230471611,0.3485221602022648,1756722.1140468551,,1765498.315770924,1713099.6870961972,1809322.8897317871
1056,2229,Kwara,0.1900326744399744,0.1121117164596662,SURVEY 90 days,1.1829332813032765,0.9716090633375588,2.0,4.0,12.0,5.0,23.799551027797,21.154073390465538,435.98,3201976,4.385168582923295,8.9659337636487,0.185,nc,4.0,2022-10-19,Nigeria,10,2022,5.064545752306378,1157517.3725225476,0.0,0.1826298207116076,0.1203765430449086,0.1899854,0.19574360847473143,0.18448198325932025,608480.0627726115,584776.3028028705,608328.6734685898,590706.8828287452,626766.3364894866
932,2227,Kebbi,0.357396939988069,0.222240200130236,SURVEY 90 days,1.163736420992299,0.9827858121364552,2.0,2.0,6.0,10.0,23.799551027797,21.154073390465538,435.98,4915325,4.51668666929484,11.743956421859846,0.385,nw,1.0,2022-10-19,Nigeria,10,2022,5.980954530481244,1619425.8096421403,0.0,0.3726823453413408,0.2148692624950936,0.3711835,0.3836450733244419,0.3653131417930126,1756722.1140468551,1831854.849114926,1824487.6088768244,1795632.8186837398,1885740.2200384624
126,2211,Adamawa,0.3987756181015683,0.5326288090409332,SURVEY 30 days,0.9167015411998864,0.9291264998082714,2.0,4.0,11.0,7.0,23.799551027797,21.154073390465538,435.98,4946724,12.400240775699976,9.323227331978972,0.283,,,2022-10-19,Nigeria,10,2022,8.912189238124059,1589050.3233018126,0.0,,0.5549908191180314,0.24734198,0.2722937621176243,0.22561917677521706,1972632.9206778624,,1223532.4867581725,1116075.796614209,1346962.088117543
2048,65700,Bayelsa,0.1633213162,0.3076551557,PREDICTION,0.6863400208592975,0.9757514070698908,3.0,2.0,3.0,3.0,23.799551027797,21.154073390465538,435.98,2394195,6.080417668394572,4.766315392876971,0.401,,,2022-10-19,Nigeria,10,2022,49.56312202804818,3082252.733161604,0.0,0.1658941954,0.2996686697,0.16890822,0.17402629368007183,0.15899763740599154,391023.07863945904,397183.053155703,404399.2241860181,380671.34848923795,416652.8821973596
1552,2239,Taraba,0.2878598702111491,0.2282045717876298,SURVEY 90 days,0.9113960532747244,0.962432803203217,2.0,24.0,9.0,14.0,23.799551027797,21.154073390465538,435.98,3402075,10.786479442315445,8.023131156568944,0.34,ne,1.0,2022-10-19,Nigeria,10,2022,6.57087117789129,708400.531222387,0.0,,0.206831373218103,0.2868911,0.3002621322870255,0.2735786274075508,979320.8679485951,,976025.0485271215,930735.0088375433,1021514.2937003822
436,2217,Cross River,0.1390794554599306,0.1226844927359659,SURVEY 90 days,0.8499738715980885,0.9883581217019204,5.0,12.0,5.0,0.0,23.799551027797,21.154073390465538,435.98,3666248,8.598974758863495,5.873919917501246,0.299,s,5.0,2022-10-19,Nigeria,10,2022,6.604995961527632,2142478.3299702806,0.0,,0.1239548833633536,0.16164197,0.1764536701142788,0.15404214337468147,509899.7754210597,,592619.5502434969,564756.7000631392,646922.9151491344
1924,2234,Osun,0.1543545723,0.2663351297,PREDICTION,1.0392066030440148,0.9843567032513924,3.0,2.0,12.0,12.0,23.799551027797,21.154073390465538,435.98,4762863,4.517762270027345,7.56291851875539,0.15,,,2022-10-19,Nigeria,10,2022,5.010304141813051,6760155.198419659,0.0,,0.2703661323,0.20720804,0.22015923485159875,0.19610073566436767,735169.6812884948,,986903.4945226908,934000.9381685972,1048588.2737829902
374,2216,Borno,0.3916119617240621,0.6417708590609428,SURVEY 30 days,1.1841244345841038,1.1485868992128023,58.0,432.0,23.0,10.0,23.799551027797,21.154073390465538,435.98,5884116,13.153346984526962,11.888980100206933,0.315,,,2022-10-19,Nigeria,10,2022,7.110502110408558,982676.1296852822,0.0,,0.6013898615251905,0.37938553,0.4045764908194542,0.3507373034954071,2304290.2097719414,,2232348.4728233814,2063778.9792941809,2380575.0028546033
1800,2218,Delta,0.1576810181,0.2841145098,PREDICTION,0.7503877149850519,0.941881074365558,9.0,12.0,12.0,7.0,23.799551027797,21.154073390465538,435.98,5746119,5.936929598192746,5.704898234854848,0.173,,,2022-10-19,Nigeria,10,2022,20.867013050104013,4121794.1083982666,0.0,0.1587164253,0.2882407904,0.16034822,0.16826819032430648,0.14881448410451412,906053.8940437539,912003.4670284106,921379.9630947858,855105.7345881466,966889.0455181136
250,65699,Bauchi,0.3638295914170316,0.2230494201553206,SURVEY 90 days,1.1440372644509418,0.9642661951494206,1.0,3.0,7.0,2.0,23.799551027797,21.154073390465538,435.98,7222452,9.990588234110133,10.796647164882812,0.298,ne,2.0,2022-10-19,Nigeria,10,2022,6.7705694498478675,1800653.3098478871,0.0,0.3645890838649349,0.2188048733192349,0.36858004,0.37899796292185783,0.3617227278649807,2627741.7601891225,2633227.157938467,2662051.671006918,2612525.039313886,2737294.595300898
994,2228,Kogi,0.3118015874562609,0.1610153341748096,SURVEY 90 days,0.9848397097365936,0.963564469068313,5.0,19.0,7.0,14.0,23.799551027797,21.154073390465538,435.98,4510378,6.686754336473293,7.736607886003764,0.25,nc,5.0,2022-10-19,Nigeria,10,2022,5.410010761176255,1904011.0166260053,0.0,,0.1580438154293597,0.27897206,0.2918612904846668,0.2592031218111515,1406343.0204277951,,1258269.4397307038,1169104.058148338,1316404.7436536504
808,2225,Kano,0.3388952956851404,0.2074569598503221,SURVEY 90 days,1.243837594845043,1.0058821666806907,1.0,0.0,4.0,3.0,23.799551027797,21.154073390465538,435.98,14936166,8.529557183153377,11.745201935123053,0.27,ne,4.0,2022-10-19,Nigeria,10,2022,7.981062865682501,8861001.919034759,0.0,,0.2007210741029229,0.34354365,0.3585548974573612,0.33030209094285967,5061796.392972341,,5131224.965524435,4933446.860469649,5355435.468536125
1738,2213,Anambra,0.14707537,0.2476378679,PREDICTION,0.7983225524188003,0.8886384757893894,8.0,10.0,13.0,8.0,23.799551027797,21.154073390465538,435.98,5494926,6.932186088031399,6.222775876473439,0.109,,,2022-10-19,Nigeria,10,2022,6.98268221738697,13994079.803680744,0.0,,0.2509630919,0.1356869,0.15244923308491706,0.12450310438871384,808168.27457262,,745589.4977039695,684135.3453862577,837697.254558371
1490,65709,Sokoto,0.3948787309617927,0.2110718982276479,SURVEY 90 days,1.1963065555643,1.1014416835779968,1.0,1.0,7.0,40.0,23.799551027797,21.154073390465538,435.98,5417315,5.318810473495564,13.0379933679968,0.409,nw,5.0,2022-10-19,Nigeria,10,2022,3.4150905837825727,2021728.1523809377,0.0,,0.226825716724963,0.38728178,0.39383060261607167,0.3761245086789131,2139182.472420284,,2098027.371504903,2037584.9427339062,2133504.4310110845
870,2226,Katsina,0.3492524408152415,0.2273152329290555,SURVEY 90 days,1.2481616426677675,1.0819982326485216,18.0,37.0,45.0,33.0,23.799551027797,21.154073390465538,435.98,7831200,7.628834204597841,12.37830070781455,0.304,nw,3.0,2022-10-19,Nigeria,10,2022,3.738369025539354,3931429.115546426,0.0,,0.2134595886931613,0.34554535,0.3652277782559395,0.32626574784517287,2735065.7145123193,,2706034.756708145,2555052.324525118,2860171.7770779133
994,2228,Kogi,0.3118015874562609,0.1610153341748096,SURVEY 90 days,0.9848397097365936,0.963564469068313,5.0,19.0,7.0,14.0,23.799551027797,21.154073390465538,435.98,4510378,6.686754336473293,7.736607886003764,0.25,nc,5.0,2022-10-19,Nigeria,10,2022,5.410010761176255,1904011.0166260053,0.0,0.2885167494341078,0.1580438154293597,0.2970981,0.3037045396864414,0.2847456201910973,1406343.0204277951,1301319.5992791124,1340024.7349179983,1284310.380906281,1369822.274301852
374,2216,Borno,0.3916119617240621,0.6417708590609428,SURVEY 30 days,1.1841244345841038,1.1485868992128023,58.0,432.0,23.0,10.0,23.799551027797,21.154073390465538,435.98,5884116,13.153346984526962,11.888980100206933,0.315,,,2022-10-19,Nigeria,10,2022,7.110502110408558,982676.1296852822,0.0,0.3870976349840948,0.6013898615251905,0.3963613,0.4083882123231887,0.38594905138015745,2304290.2097719414,2277727.387572072,2332235.816557646,2270968.9884108067,2403003.614342272
2172,65702,Ekiti,0.1547127366,0.2605561614,PREDICTION,1.068557249831484,0.9861903735726671,0.0,0.0,4.0,2.0,23.799551027797,21.154073390465538,435.98,3263741,5.309515526441268,7.720080403716114,0.125,,,2022-10-19,Nigeria,10,2022,0.0,6920075.579838639,0.0,0.1575188637,0.2641587853,0.16503966,0.17143961191177368,0.15297272093594075,504942.30166362063,514100.7737311017,538646.7002240419,499263.3412001882,559534.4904205442
64,2221,Abuja,0.0903787991598815,0.0979742217808479,SURVEY 90 days,1.121842294039345,0.9564928573423296,7.0,38.0,20.0,7.0,23.799551027797,21.154073390465538,435.98,4346654,7.195557200236763,8.897617247031896,0.186,fixed,0.0,2022-10-19,Nigeria,10,2022,8.093857361595054,7158264.008480198,0.0,,0.0957632305141914,0.12138552,0.15655214935541148,0.11117767989635467,392845.36888349557,,527620.8655551523,483250.9070322096,680478.0262042967
1428,65708,Rivers,0.1675586731174448,0.150913024464835,SURVEY 90 days,0.7335024887488304,0.964867106152217,5.0,5.0,17.0,14.0,23.799551027797,21.154073390465538,435.98,7216862,6.9181814546659615,4.845392315480488,0.241,s,3.0,2022-10-19,Nigeria,10,2022,37.974570247399846,8692966.737064147,0.0,0.1693241779081767,0.153739346594581,0.17106703,0.17531430236995219,0.16587912552058698,1209247.8207917088,1221989.22522676,1234567.1427587867,1197126.7575627544,1265219.126830218
1242,2231,Niger,0.2521874497583325,0.1370268267462078,SURVEY 90 days,1.1148471747720283,0.9438635648780338,8.0,16.0,19.0,30.0,23.799551027797,21.154073390465538,435.98,6109666,5.590434857522704,9.933226341153109,0.278,nc,3.0,2022-10-19,Nigeria,10,2022,9.388851620050351,1030131.6717775204,0.0,0.2433985136474088,0.1123068493862344,0.25299612,0.2590078182518482,0.24562670066952705,1540781.0874151923,1487083.6232821096,1545721.7734130025,1500697.1017727866,1582451.2609074966
312,2215,Benue,0.2665988010901519,0.1480965119509157,SURVEY 90 days,0.900214596696603,0.9949221847401296,7.0,28.0,11.0,43.0,23.799551027797,21.154073390465538,435.98,6282546,8.751907951010807,7.341086057629309,0.312,nc,1.0,2022-10-19,Nigeria,10,2022,2.1219217639571797,2436641.1429180508,0.0,0.2686932613360404,0.1477407300256046,0.27397674,0.2833229511976242,0.26847139149904253,1674919.2313937293,1688077.7742336951,1721271.4922178984,1686683.8667767437,1779989.473754829
1118,2230,Lagos,0.145523654749133,0.1178048727136246,SURVEY 90 days,0.8659987185222225,0.9563046197633032,4.0,4.0,10.0,8.0,23.799551027797,21.154073390465538,435.98,12631475,3.586974900291951,6.522424330455863,0.101,fixed,0.0,2022-10-19,Nigeria,10,2022,5.586413295128642,42081677.085942894,0.0,,0.114135078451546,0.15109748,0.16357137486338613,0.14252620749175549,1838178.4068723049,,1908583.9967504144,1800316.2267769221,2066147.7323024904
1676,65710,Zamfara,0.4044867923628645,0.2289075926843174,SURVEY 90 days,1.0636009951000434,1.0891662975316192,10.0,68.0,47.0,88.0,23.799551027797,21.154073390465538,435.98,3483746,6.246534745910911,12.10150481045647,0.328,nw,4.0,2022-10-19,Nigeria,10,2022,4.699968878465895,1251860.2019380694,0.0,0.3809939325382065,0.230856068868362,0.3941937,0.4021203354001045,0.3841221906244755,1409129.2449469597,1327286.088504247,1373270.7565938234,1338184.145099254,1400885.1099687724
560,65703,Enugu,0.1682080597854046,0.1264657638920509,SURVEY 90 days,0.8799962417444833,0.9831661538454264,10.0,16.0,20.0,8.0,23.799551027797,21.154073390465538,435.98,4361568,7.440611162631195,6.536244896216677,0.234,s,4.0,2022-10-19,Nigeria,10,2022,0.8010134347845391,6986076.713337876,0.0,,0.1213377068048583,0.16890801,0.17699847482144832,0.16129921190440655,733650.8909021076,,736703.7927031517,703517.4810674787,771990.8838300346
1800,2218,Delta,0.1576810181,0.2841145098,PREDICTION,0.7503877149850519,0.941881074365558,9.0,12.0,12.0,7.0,23.799551027797,21.154073390465538,435.98,5746119,5.936929598192746,5.704898234854848,0.173,,,2022-10-19,Nigeria,10,2022,20.867013050104013,4121794.1083982666,0.0,,0.2882407904,0.12509497,0.1480250209569931,0.11548610143363476,906053.8940437539,,718810.555767104,663596.881683736,850569.3853963763
1304,2232,Ogun,0.1638945733140816,0.1035112755816519,SURVEY 90 days,0.9259338891581924,0.9960320310249796,6.0,1.0,2.0,1.0,23.799551027797,21.154073390465538,435.98,5408787,3.4732617764948586,6.995135100939411,0.289,fixed,0.0,2022-10-19,Nigeria,10,2022,5.663668766732277,3965325.0329528977,0.0,0.1546331720592944,0.1104193786418952,0.16129917,0.16964361406862735,0.15149241387844087,886470.8375117516,836377.8908030747,872432.8487418294,819390.1987843305,917566.1744074087
1242,2231,Niger,0.2521874497583325,0.1370268267462078,SURVEY 90 days,1.1148471747720283,0.9438635648780338,8.0,16.0,19.0,30.0,23.799551027797,21.154073390465538,435.98,6109666,5.590434857522704,9.933226341153109,0.278,nc,3.0,2022-10-19,Nigeria,10,2022,9.388851620050351,1030131.6717775204,0.0,,0.1123068493862344,0.27561826,0.3000608913600445,0.264144379645586,1540781.0874151923,,1683935.4823983908,1613833.935411729,1833271.8258721575
560,65703,Enugu,0.1682080597854046,0.1264657638920509,SURVEY 90 days,0.8799962417444833,0.9831661538454264,10.0,16.0,20.0,8.0,23.799551027797,21.154073390465538,435.98,4361568,7.440611162631195,6.536244896216677,0.234,s,4.0,2022-10-19,Nigeria,10,2022,0.8010134347845391,6986076.713337876,0.0,0.1614268667624913,0.1213377068048583,0.16629778,0.17105257511138916,0.156944565102458,733650.8909021076,704074.2564115457,725319.0691208839,684524.3929247975,746057.4379234314
250,65699,Bauchi,0.3638295914170316,0.2230494201553206,SURVEY 90 days,1.1440372644509418,0.9642661951494206,1.0,3.0,7.0,2.0,23.799551027797,21.154073390465538,435.98,7222452,9.990588234110133,10.796647164882812,0.298,ne,2.0,2022-10-19,Nigeria,10,2022,6.7705694498478675,1800653.3098478871,0.0,,0.2188048733192349,0.35564077,0.3648580498993397,0.34012091904878616,2627741.7601891225,,2568598.383380413,2456507.0120257437,2635169.7522115856
1738,2213,Anambra,0.14707537,0.2476378679,PREDICTION,0.7983225524188003,0.8886384757893894,8.0,10.0,13.0,8.0,23.799551027797,21.154073390465538,435.98,5494926,6.932186088031399,6.222775876473439,0.109,,,2022-10-19,Nigeria,10,2022,6.98268221738697,13994079.803680744,0.0,0.1517094076,0.2509630919,0.1490973,0.15748102590441704,0.14068570584058762,808168.27457262,833631.9682658376,819278.5952165723,773057.5428517967,865346.5837488547
498,2219,Edo,0.1369263100786414,0.1080470274810931,SURVEY 90 days,0.9539106514165756,0.9808924508917534,10.0,17.0,3.0,0.0,23.799551027797,21.154073390465538,435.98,4275642,5.930214659778057,6.633537264421524,0.126,fixed,0.0,2022-10-19,Nigeria,10,2022,4.106835383110302,2679294.9743232727,0.0,,0.1014482313741656,0.14983487,0.17105679139494895,0.14236756935715675,585447.8822772624,,640640.268761158,608712.7589813723,731377.6016734823
1676,65710,Zamfara,0.4044867923628645,0.2289075926843174,SURVEY 90 days,1.0636009951000434,1.0891662975316192,10.0,68.0,47.0,88.0,23.799551027797,21.154073390465538,435.98,3483746,6.246534745910911,12.10150481045647,0.328,nw,4.0,2022-10-19,Nigeria,10,2022,4.699968878465895,1251860.2019380694,0.0,,0.230856068868362,0.3959761,0.4057812519371509,0.3732027232646942,1409129.2449469597,,1379480.1419001222,1300143.4943624854,1413638.8133110418
870,2226,Katsina,0.3492524408152415,0.2273152329290555,SURVEY 90 days,1.2481616426677675,1.0819982326485216,18.0,37.0,45.0,33.0,23.799551027797,21.154073390465538,435.98,7831200,7.628834204597841,12.37830070781455,0.304,nw,3.0,2022-10-19,Nigeria,10,2022,3.738369025539354,3931429.115546426,0.0,0.3090201107999787,0.2134595886931613,0.32462254,0.3412072628736496,0.3095221631228924,2735065.7145123193,2419998.2916967934,2542184.048295021,2423929.963847995,2672062.3170161247
312,2215,Benue,0.2665988010901519,0.1480965119509157,SURVEY 90 days,0.900214596696603,0.9949221847401296,7.0,28.0,11.0,43.0,23.799551027797,21.154073390465538,435.98,6282546,8.751907951010807,7.341086057629309,0.312,nc,1.0,2022-10-19,Nigeria,10,2022,2.1219217639571797,2436641.1429180508,0.0,,0.1477407300256046,0.26504642,0.27272331342101097,0.2562949925661087,1674919.2313937293,,1665166.3114181757,1610185.080366236,1713396.7618399188
2234,65706,Ondo,0.1582786739,0.2814437151,PREDICTION,0.9718868287733304,0.9903543596886604,2.0,1.0,6.0,2.0,23.799551027797,21.154073390465538,435.98,4701603,5.150609211703119,6.917995342607632,0.095,,,2022-10-19,Nigeria,10,2022,4.575001375560877,3811452.282575353,0.0,0.1604799181,0.2877391577,0.16748801,0.17475521862506865,0.15782419852912427,744163.4880442617,754512.8643787144,787462.1243445575,742026.7252771263,821629.6601532786
1862,2222,Imo,0.1457489878,0.2611276507,PREDICTION,0.7966175033729752,0.975306497680096,10.0,20.0,15.0,14.0,23.799551027797,21.154073390465538,435.98,5464002,7.062307590787432,5.573020020443396,0.142,,,2022-10-19,Nigeria,10,2022,9.382433903350265,13194968.10841433,0.0,,0.2650026977,0.1541921,0.1758718233555555,0.13899146132171153,796372.7608371757,,842505.9697525799,759449.6226447545,960963.994558402
498,2219,Edo,0.1369263100786414,0.1080470274810931,SURVEY 90 days,0.9539106514165756,0.9808924508917534,10.0,17.0,3.0,0.0,23.799551027797,21.154073390465538,435.98,4275642,5.930214659778057,6.633537264421524,0.126,fixed,0.0,2022-10-19,Nigeria,10,2022,4.106835383110302,2679294.9743232727,0.0,0.132803799581652,0.1014482313741656,0.13752398,0.14804506525397298,0.12686476968228816,585447.8822772624,567821.5032508938,588003.3003997207,542428.3375739179,632987.6988926276
1552,2239,Taraba,0.2878598702111491,0.2282045717876298,SURVEY 90 days,0.9113960532747244,0.962432803203217,2.0,24.0,9.0,14.0,23.799551027797,21.154073390465538,435.98,3402075,10.786479442315445,8.023131156568944,0.34,ne,1.0,2022-10-19,Nigeria,10,2022,6.57087117789129,708400.531222387,0.0,0.2650255367714054,0.206831373218103,0.27448386,0.2827549584209919,0.26397905349731443,979320.8679485951,901636.753011579,933814.6764412522,898076.538426876,961953.575170096
746,2224,Kaduna,0.291110359376774,0.1654595807098085,SURVEY 90 days,0.9667391934966876,0.9733088039042928,40.0,121.0,26.0,23.0,23.799551027797,21.154073390465538,435.98,9391404,7.705978547518679,10.392367010531627,0.298,nw,2.0,2022-10-19,Nigeria,10,2022,6.893640683229361,2576065.484793514,0.0,0.2827096404830388,0.1595534292673775,0.29024643,0.2968953140079975,0.2834190182387829,2733934.993492473,2655040.4484709725,2725821.456069231,2661702.5015637786,2788263.839555964
2110,65701,Ebonyi,0.1577919722,0.2621500194,PREDICTION,0.880513466556109,0.9964252358347055,8.0,6.0,5.0,5.0,23.799551027797,21.154073390465538,435.98,2900754,8.016266262545862,6.262027249277776,0.32,,,2022-10-19,Nigeria,10,2022,6.052530347082098,5599375.086127473,0.0,0.1584095359,0.2664361596,0.16823417,0.17472567595541477,0.15803741179406644,457715.6945270388,459507.09490006865,488005.9400650263,458427.6544112854,506836.2034303732
1614,2240,Yobe,0.4675401823586012,0.5384977913308309,SURVEY 30 days,1.3345941586417966,1.1117624744880508,5.0,8.0,1.0,1.0,23.799551027797,21.154073390465538,435.98,4340967,11.43706583990847,12.29868022093661,0.37,,,2022-10-19,Nigeria,10,2022,2.999205945765202,1164832.327535513,0.0,0.4608089231954757,0.5536264390524167,0.46832323,0.4761784628033638,0.4608674213290215,2029576.50279267,2000356.3288970944,2032975.6899905205,2000610.2673643783,2067074.9931401296
1180,65705,Nassarawa,0.255051883813628,0.1159158644717274,SURVEY 90 days,1.069185308188123,0.9559698529414352,1.0,2.0,7.0,10.0,23.799551027797,21.154073390465538,435.98,2536680,8.19796255875058,8.510447350140884,0.243,nc,2.0,2022-10-19,Nigeria,10,2022,6.346797030183005,1154123.7815256508,0.0,,0.1191845787814925,0.24414486,0.2560783341526985,0.22471830435097218,646985.0126323538,,619317.3756766319,570038.4282810241,649588.7886784672
1490,65709,Sokoto,0.3948787309617927,0.2110718982276479,SURVEY 90 days,1.1963065555643,1.1014416835779968,1.0,1.0,7.0,40.0,23.799551027797,21.154073390465538,435.98,5417315,5.318810473495564,13.0379933679968,0.409,nw,5.0,2022-10-19,Nigeria,10,2022,3.4150905837825727,2021728.1523809377,0.0,0.3870528453921846,0.226825716724963,0.39521235,0.404520832747221,0.38629823476076125,2139182.472420284,2096787.1851357624,2140989.8041692376,2092699.2216429934,2191416.7750540115
746,2224,Kaduna,0.291110359376774,0.1654595807098085,SURVEY 90 days,0.9667391934966876,0.9733088039042928,40.0,121.0,26.0,23.0,23.799551027797,21.154073390465538,435.98,9391404,7.705978547518679,10.392367010531627,0.298,nw,2.0,2022-10-19,Nigeria,10,2022,6.893640683229361,2576065.484793514,0.0,,0.1595534292673775,0.28140384,0.2905179776251316,0.27294556647539137,2733934.993492473,,2642777.144723654,2563342.0847792565,2728371.697140571
684,2223,Jigawa,0.3852685888312414,0.2449193088984454,SURVEY 90 days,1.3873645180439478,1.03611605506806,2.0,2.0,2.0,0.0,23.799551027797,21.154073390465538,435.98,6366194,9.563558283105715,12.238420415697483,0.385,ne,5.0,2022-10-19,Nigeria,10,2022,2.480832167162807,3300473.564452695,0.0,,0.2360076333651318,0.38646007,0.3954203389585018,0.37831258550286295,2452694.578605916,,2460279.752400875,2408411.311952813,2517322.5893555805
2172,65702,Ekiti,0.1547127366,0.2605561614,PREDICTION,1.068557249831484,0.9861903735726671,0.0,0.0,4.0,2.0,23.799551027797,21.154073390465538,435.98,3263741,5.309515526441268,7.720080403716114,0.125,,,2022-10-19,Nigeria,10,2022,0.0,6920075.579838639,0.0,,0.2641587853,0.19227323,0.20925310589373108,0.18048302009701728,504942.30166362063,,627530.0218665302,589049.8324944592,682947.9410827118
1986,2235,Oyo,0.1734882295,0.3008038402,PREDICTION,1.2027042892617137,1.001048155694614,3.0,5.0,11.0,3.0,23.799551027797,21.154073390465538,435.98,7926302,3.612911625311882,8.158826810946747,0.19,,,2022-10-19,Nigeria,10,2022,3.8968937141083706,3499598.273847054,0.0,,0.3072316349,0.1942378,0.20997458696365356,0.18032293543219566,1375120.100462309,,1539587.4503486753,1429294.0437620834,1664321.9885991812
188,2212,Akwa Ibom,0.1850029165037069,0.1346039420453883,SURVEY 90 days,0.7634767294938736,0.9839488484024896,1.0,2.0,3.0,1.0,23.799551027797,21.154073390465538,435.98,5449818,7.84736624649367,4.906643134561908,0.293,s,1.0,2022-10-19,Nigeria,10,2022,4.773607092678418,9918206.576131117,0.0,0.1753919151250873,0.1232470523159331,0.17940682,0.18598996363580225,0.1711685623973608,1008232.2244143989,955854.016103173,977734.5263746977,932837.5123872601,1013611.4516417405
1118,2230,Lagos,0.145523654749133,0.1178048727136246,SURVEY 90 days,0.8659987185222225,0.9563046197633032,4.0,4.0,10.0,8.0,23.799551027797,21.154073390465538,435.98,12631475,3.586974900291951,6.522424330455863,0.101,fixed,0.0,2022-10-19,Nigeria,10,2022,5.586413295128642,42081677.085942894,0.0,0.1318340505615284,0.114135078451546,0.132693,0.14657070264220237,0.11503660921007394,1838178.4068723049,1665258.5138166817,1676108.2198038697,1453082.0533218188,1851404.1661574133
1366,65707,Plateau,0.2387785371378975,0.1384133371411173,SURVEY 90 days,1.0113116324555298,0.964018070152367,9.0,33.0,28.0,57.0,23.799551027797,21.154073390465538,435.98,4620441,9.512049503898895,9.232416150773494,0.365,ne,3.0,2022-10-19,Nigeria,10,2022,9.276632131225576,2118500.801670101,0.0,0.2274553347703891,0.1365354516011924,0.23471224,0.23867972306907176,0.2282549947500229,1103262.1429119643,1050943.9544418314,1084474.0711294413,1054638.7361977906,1102805.578336985
1862,2222,Imo,0.1457489878,0.2611276507,PREDICTION,0.7966175033729752,0.975306497680096,10.0,20.0,15.0,14.0,23.799551027797,21.154073390465538,435.98,5464002,7.062307590787432,5.573020020443396,0.142,,,2022-10-19,Nigeria,10,2022,9.382433903350265,13194968.10841433,0.0,0.1465403736,0.2650026977,0.14776593,0.1553050249814987,0.1340114276856184,796372.7608371757,800696.8944311471,807393.3614612818,732238.7088970743,848586.9671089589
2110,65701,Ebonyi,0.1577919722,0.2621500194,PREDICTION,0.880513466556109,0.9964252358347055,8.0,6.0,5.0,5.0,23.799551027797,21.154073390465538,435.98,2900754,8.016266262545862,6.262027249277776,0.32,,,2022-10-19,Nigeria,10,2022,6.052530347082098,5599375.086127473,0.0,,0.2664361596,0.18344799,0.19694782495498656,0.1691598441451788,457715.6945270388,,532137.4816215634,490691.09454350395,571297.191029477
1304,2232,Ogun,0.1638945733140816,0.1035112755816519,SURVEY 90 days,0.9259338891581924,0.9960320310249796,6.0,1.0,2.0,1.0,23.799551027797,21.154073390465538,435.98,5408787,3.4732617764948586,6.995135100939411,0.289,fixed,0.0,2022-10-19,Nigeria,10,2022,5.663668766732277,3965325.0329528977,0.0,,0.1104193786418952,0.17484301,0.18662295155227185,0.16438465118408202,886470.8375117516,,945688.6173053384,889121.5643239975,1009403.7942575578
808,2225,Kano,0.3388952956851404,0.2074569598503221,SURVEY 90 days,1.243837594845043,1.0058821666806907,1.0,0.0,4.0,3.0,23.799551027797,21.154073390465538,435.98,14936166,8.529557183153377,11.745201935123053,0.27,ne,4.0,2022-10-19,Nigeria,10,2022,7.981062865682501,8861001.919034759,0.0,0.3189350890588451,0.2007210741029229,0.33249864,0.3389256648719311,0.325000961124897,5061796.392972341,4763667.433407694,4966254.879155695,4854268.305521009,5062249.992187532
1180,65705,Nassarawa,0.255051883813628,0.1159158644717274,SURVEY 90 days,1.069185308188123,0.9559698529414352,1.0,2.0,7.0,10.0,23.799551027797,21.154073390465538,435.98,2536680,8.19796255875058,8.510447350140884,0.243,nc,2.0,2022-10-19,Nigeria,10,2022,6.346797030183005,1154123.7815256508,0.0,0.243526966663662,0.1191845787814925,0.2505198,0.256598324328661,0.24266925193369387,646985.0126323538,617749.9857963781,635488.5969758034,615574.2379951626,650907.8373580277
1366,65707,Plateau,0.2387785371378975,0.1384133371411173,SURVEY 90 days,1.0113116324555298,0.964018070152367,9.0,33.0,28.0,57.0,23.799551027797,21.154073390465538,435.98,4620441,9.512049503898895,9.232416150773494,0.365,ne,3.0,2022-10-19,Nigeria,10,2022,9.276632131225576,2118500.801670101,0.0,,0.1365354516011924,0.26208246,0.2838234849274158,0.2494723293930292,1103262.1429119643,,1210936.532209754,1152672.1790930573,1311389.666521514
126,2211,Adamawa,0.3987756181015683,0.5326288090409332,SURVEY 30 days,0.9167015411998864,0.9291264998082714,2.0,4.0,11.0,7.0,23.799551027797,21.154073390465538,435.98,4946724,12.400240775699976,9.323227331978972,0.283,,,2022-10-19,Nigeria,10,2022,8.912189238124059,1589050.3233018126,0.0,0.447190073351019,0.5549908191180314,0.4451568,0.4558143138885498,0.43182948902249335,1972632.9206778624,2212125.868407246,2202067.888987541,2136141.297255304,2254787.606056023
2048,65700,Bayelsa,0.1633213162,0.3076551557,PREDICTION,0.6863400208592975,0.9757514070698908,3.0,2.0,3.0,3.0,23.799551027797,21.154073390465538,435.98,2394195,6.080417668394572,4.766315392876971,0.401,,,2022-10-19,Nigeria,10,2022,49.56312202804818,3082252.733161604,0.0,,0.2996686697,0.18329543,0.19477026164531708,0.16900585927069187,391023.07863945904,,438844.9990430474,404632.9832365941,466317.9865799099
2234,65706,Ondo,0.1582786739,0.2814437151,PREDICTION,0.9718868287733304,0.9903543596886604,2.0,1.0,6.0,2.0,23.799551027797,21.154073390465538,435.98,4701603,5.150609211703119,6.917995342607632,0.095,,,2022-10-19,Nigeria,10,2022,4.575001375560877,3811452.282575353,0.0,,0.2877391577,0.1821584,0.19735589772462844,0.1710270456969738,744163.4880442617,,856436.4594538361,804101.2711300291,927889.0808098062
1924,2234,Osun,0.1543545723,0.2663351297,PREDICTION,1.0392066030440148,0.9843567032513924,3.0,2.0,12.0,12.0,23.799551027797,21.154073390465538,435.98,4762863,4.517762270027345,7.56291851875539,0.15,,,2022-10-19,Nigeria,10,2022,5.010304141813051,6760155.198419659,0.0,0.1574094892,0.2703661323,0.16396394,0.1721039369702339,0.15193286575376988,735169.6812884948,749719.8319595796,780937.8008774221,723635.4247825977,819707.4735498591
188,2212,Akwa Ibom,0.1850029165037069,0.1346039420453883,SURVEY 90 days,0.7634767294938736,0.9839488484024896,1.0,2.0,3.0,1.0,23.799551027797,21.154073390465538,435.98,5449818,7.84736624649367,4.906643134561908,0.293,s,1.0,2022-10-19,Nigeria,10,2022,4.773607092678418,9918206.576131117,0.0,,0.1232470523159331,0.18990108,0.20160851702094076,0.180220016092062,1008232.2244143989,,1034926.3442103267,982166.2876588092,1098729.7250140293
1986,2235,Oyo,0.1734882295,0.3008038402,PREDICTION,1.2027042892617137,1.001048155694614,3.0,5.0,11.0,3.0,23.799551027797,21.154073390465538,435.98,7926302,3.612911625311882,8.158826810946747,0.19,,,2022-10-19,Nigeria,10,2022,3.8968937141083706,3499598.273847054,0.0,0.1784945726,0.3072316349,0.18848825,0.19664279557764527,0.18096688129007815,1375120.100462309,1414801.8877885253,1494014.7534022331,1434398.153103309,1558650.1838726809
622,65704,Gombe,0.3396723677064371,0.2210116386596116,SURVEY 90 days,1.0104712152698232,0.9084547752060612,0.0,0.0,2.0,3.0,23.799551027797,21.154073390465538,435.98,3545037,11.19199513759299,10.383587852103902,0.38,fixed,0.0,2022-10-19,Nigeria,10,2022,8.17420965825676,2463975.872950984,0.0,,0.2289606157135155,0.34716058,0.35456382408738135,0.33838080391287806,1204151.1113969246,,1230697.0931503773,1199572.4699608975,1256941.875251258
2,65698,Abia,0.201687264828878,0.1252821700391436,SURVEY 90 days,0.7788204900867346,0.9884443799514608,6.0,4.0,6.0,42.0,23.799551027797,21.154073390465538,435.98,3802539,7.523189981967188,5.453302118919583,0.101,s,2.0,2022-10-19,Nigeria,10,2022,2.263606106309577,9589224.656305324,0.0,0.1949747555932176,0.1272468828257623,0.20312715,0.2086599301546812,0.19949257113039492,766923.6903151369,741399.1121586781,772398.8937385082,758578.2819336008,793437.5221504513
622,65704,Gombe,0.3396723677064371,0.2210116386596116,SURVEY 90 days,1.0104712152698232,0.9084547752060612,0.0,0.0,2.0,3.0,23.799551027797,21.154073390465538,435.98,3545037,11.19199513759299,10.383587852103902,0.38,fixed,0.0,2022-10-19,Nigeria,10,2022,8.17420965825676,2463975.872950984,0.0,0.3493435057577375,0.2289606157135155,0.3535024,0.36247854083776476,0.3451101303100586,1204151.1113969246,1238435.6536208924,1253179.0619541407,1223428.1810239793,1284999.838975887
